iata,name,city,country,lat,lon
AAA,Anaa Airport,Anaa,PF,-17.3526,-145.509995
AAC,El Arish International Airport,El Arish,EG,31.055324,33.827964
AAE,Annaba Rabah Bitat Airport,Annaba,DZ,36.826781,7.81334
AAK,Aranuka Airport,Buariki,KI,0.185278,173.636993
AAL,Aalborg Airport,Aalborg,DK,57.094763,9.84993
AAN,Al Ain International Airport,Al Ain,AE,24.2617,55.6092
AAP,Aji Pangeran Tumenggung Pranoto International Airport,Samarinda,ID,-0.374478,117.250128
AAQ,Anapa Vityazevo Airport,Krasnyi Kurgan,RU,45.002102,37.347301
AAR,Aarhus Airport,Aarhus,DK,56.303331,10.618286
AAT,Altay Xuedu Airport,Altay,CN,47.749886,88.085808
AAX,Romeu Zema Airport,Araxá,BR,-19.5632,-46.9604
AAY,Al Ghaydah International Airport,Al Ghaydah,YE,16.193341,52.174186
AAZ,Quezaltenango Airport,Quezaltenango,GT,14.8656,-91.501999
ABA,Abakan International Airport,Abakan,RU,53.740002,91.385002
ABB,Asaba International Airport,Asaba,NG,6.204167,6.665278
ABD,Abadan Ayatollah Jami International Airport,Abadan,IR,30.367887,48.230075
ABE,Lehigh Valley International Airport,Allentown/Bethlehem,US,40.651773,-75.442797
ABI,Abilene Regional Airport,Abilene,US,32.4113006592,-99.6819000244
ABJ,Félix-Houphouët-Boigny International Airport,Abidjan,CI,5.26139,-3.92629
ABK,Kebri Dahar Airport,Kebri Dahar,ET,6.732577,44.241339
ABL,Ambler Airport,Ambler,US,67.105529,-157.855339
ABM,Northern Peninsula Airport,Bamaga,AU,-10.946194,142.455081
ABQ,Albuquerque International Sunport,Albuquerque,US,35.039976,-106.608925
ABR,Aberdeen Regional Airport,Aberdeen,US,45.449100494384766,-98.42179870605467
ABS,Abu Simbel Airport,Abu Simbel,EG,22.374402,31.609881
ABT,King Saud Bin Abdulaziz (Al Baha) Airport,Al-Baha,SA,20.298506,41.636153
ABU,AA Bere Tallo (Haliwen) Airport,Atambua,ID,-9.074841,124.903285
ABV,Nnamdi Azikiwe International Airport,Abuja,NG,9.00679,7.26317
ABX,Albury Airport,East Albury,AU,-36.066758,146.959148
ABY,Southwest Georgia Regional Airport,Albany,US,31.532946,-84.196215
ABZ,Aberdeen International Airport,Aberdeen,GB,57.2019,-2.19778
ACA,General Juan N. Álvarez International Airport,Acapulco,MX,16.757126,-99.753113
ACC,Kotoka International Airport,Accra,GH,5.605189800262451,-0.1667860001325607
ACE,César Manrique-Lanzarote Airport,San Bartolomé,ES,28.945499,-13.6052
ACF,Aral Tarim Airport,Aral,CN,40.434748,81.26206
ACH,Sankt Gallen Altenrhein Airport,St. Gallen,CH,47.485001,9.56077
ACI,Alderney Airport,Saint Anne,GG,49.706104,-2.21472
ACK,Nantucket Memorial Airport,Nantucket,US,41.25310135,-70.06020355
ACT,Waco Regional Airport,Waco,US,31.611299514770508,-97.23049926757812
ACV,California Redwood Coast-Humboldt County Airport,Arcata/Eureka,US,40.978101,-124.109
ACX,Xingyi Wanfenglin Airport,Xingyi,CN,25.083423,104.960804
ACY,Atlantic City International Airport,Atlantic City,US,39.456201,-74.577511
ADA,Adana Şakirpaşa Airport,Seyhan,TR,36.982201,35.280399
ADB,Adnan Menderes International Airport,Gaziemir,TR,38.2924,27.157
ADD,Addis Ababa Bole International Airport,Addis Ababa,ET,8.97789,38.799301
ADE,Aden International Airport,Aden,YE,12.829564,45.029976
ADF,Adıyaman Airport,Adıyaman,TR,37.7314,38.468899
ADJ,Marka International (Amman Civil) Airport,Amman,JO,31.9727,35.9916
ADK,Adak Airport,Adak,US,51.883564,-176.642783
ADL,Adelaide International Airport,Adelaide,AU,-34.947512,138.533393
ADQ,Kodiak Airport,Kodiak,US,57.75,-152.4940033
ADU,Ardabil Airport,Ardabil,IR,38.3256988525,48.4244003296
ADZ,Gustavo Rojas Pinilla International Airport,San Andrés,CO,12.5836,-81.7112
AEB,Baise (Bose) Bama Airport,Baise (Tianyang),CN,23.7206,106.959999
AEH,Abeche Airport,Abeche,TD,13.847,20.844299
AEP,Aeroparque Jorge Newbery,Buenos Aires,AR,-34.559419,-58.415536
AER,Sochi International Airport,Sochi,RU,43.449902,39.9566
AES,Ålesund Airport,Ålesund,NO,62.560443,6.110845
AET,Allakaket Airport,Allakaket,US,66.551804,-152.621994
AEU,Abu Musa Island Airport,Abu Musa,IR,25.8757,55.033001
AEX,Alexandria International Airport,Alexandria,US,31.325828,-92.546702
AEY,Akureyri International Airport,Akureyri,IS,65.656573,-18.072018
AFA,Suboficial Ay Santiago Germano Airport,San Rafael,AR,-34.588299,-68.4039
AFL,Piloto Osvaldo Marques Dias Airport,Alta Floresta,BR,-9.866389,-56.106298
AFS,Sugraly Airport,Zarafshan,UZ,41.613899,64.2332
AFZ,Sabzevar National Airport,Sabzevar,IR,36.16809844970703,57.59519958496094
AGA,Al Massira Airport,Agadir (Temsia),MA,30.322478,-9.412003
AGE,Wangerooge Airport,Wangerooge,DE,53.782544,7.919584
AGH,Ängelholm-Helsingborg Airport,Ängelholm,SE,56.29610061645508,12.847100257873535
AGI,Wageningen Airstrip,Wageningen,SR,5.841252,-56.673247
AGJ,Aguni Airport,Aguni,JP,26.592755,127.240335
AGP,Málaga-Costa del Sol Airport,Málaga,ES,36.6749,-4.49911
AGR,Agra Airport / Agra Air Force Station,Agra,IN,27.157975,77.961025
AGS,Augusta Regional At Bush Field,Augusta,US,33.3699,-81.9645
AGT,Aeropuerto Internacional Guaraní,Ciudad del Este,PY,-25.457186,-54.839544
AGU,Jesús Terán Peredo International Airport,Aguascalientes,MX,21.699589,-102.318372
AGX,Agatti Airport,Agatti,IN,10.8237,72.176003
AHA,Maa Mahamaya Airport,Ambikapur,IN,22.98753,83.19612
AHB,Abha International Airport,Abha,SA,18.2404,42.656601
AHE,Ahe Airport,Ahe Atoll,PF,-14.428099632263184,-146.2570037841797
AHO,Alghero-Fertilia Airport,Alghero,IT,40.632099,8.29077
AIA,Alliance Municipal Airport,Alliance,US,42.052543,-102.803965
AIN,Wainwright Airport,Wainwright,US,70.638,-159.994995
AIP,Adampur Airport,Adampur,IN,31.4338,75.758797
AIT,Aitutaki Airport,Aitutaki,CK,-18.8309,-159.764008
AIU,Enua Airport,Atiu Island,CK,-19.96780014038086,-158.11900329589844
AJA,Ajaccio Napoléon Bonaparte airport,Ajaccio,FR,41.923599,8.80292
AJF,Al-Jawf International Airport,Al-Jawf,SA,29.783301,40.100905
AJI,Ağrı Airport,Ağrı,TR,39.655642,43.025742
AJL,Lengpui Airport,Aizawl (Lengpui),IN,23.840599,92.619698
AJN,Ouani Airport,Ouani,KM,-12.131047,44.430044
AJR,Arvidsjaur Airport,Arvidsjaur,SE,65.59030151367188,19.28190040588379
AJU,Aracaju - Santa Maria International Airport,Aracaju,BR,-10.984129,-37.071789
AKA,Ankang Fuqiang Airport,Ankang (Hanbin),CN,32.75696,108.87338
AKB,Atka Airport,Atka,US,52.220299,-174.205994
AKF,Kufra Airport,Kufra,LY,24.178699493408203,23.31399917602539
AKI,Akiak Airport,Akiak,US,60.902646,-161.23106
AKJ,Asahikawa Airport,Higashikagura,JP,43.670799,142.447006
AKK,Akhiok Airport,Akhiok,US,56.938702,-154.182999
AKL,Auckland International Airport,Auckland,NZ,-37.01199,174.786331
AKN,King Salmon Airport,King Salmon,US,58.677845,-156.651965
AKP,Anaktuvuk Pass Airport,Anaktuvuk Pass,US,68.133598,-151.742996
AKR,Akure Airport,Akure,NG,7.246739864349365,5.3010101318359375
AKS,Gwaunaru'u Airport,Auki,SB,-8.70257,160.682007
AKU,Aksu Hongqipo Airport,Aksu (Onsu),CN,41.262501,80.291702
AKV,Akulivik Airport,Akulivik,CA,60.8186,-78.148598
AKX,Aktobe International Airport,Aktobe,KZ,50.248116,57.204144
AKY,Sittwe Airport,Sittwe,MM,20.133165,92.870693
ALA,Almaty International Airport,Almaty,KZ,43.354267,77.042828
ALB,Albany International Airport,Albany,US,42.748299,-73.801697
ALC,Alicante-Elche Miguel Hernández Airport,Alicante,ES,38.2822,-0.558156
ALF,Alta Airport,Alta,NO,69.976097,23.3717
ALG,Houari Boumediene Airport,Algiers,DZ,36.693886,3.214531
ALH,Albany Airport,Albany,AU,-34.943333,117.808889
ALO,Waterloo Regional Airport,Waterloo,US,42.557098388671875,-92.40029907226562
ALP,Aleppo International Airport,Aleppo,SY,36.181262,37.226869
ALS,San Luis Valley Regional Airport/Bergman Field,Alamosa,US,37.434898,-105.866997
ALW,Walla Walla Regional Airport,Walla Walla,US,46.09489822,-118.288002
AMA,Rick Husband Amarillo International Airport,Amarillo,US,35.217857,-101.706444
AMD,Sardar Vallabh Patel International Airport,Ahmedabad,IN,23.0772,72.634697
AMH,Arba Minch Airport,Arba Minch,ET,6.03939,37.5905
AMM,Queen Alia International Airport,Amman,JO,31.7226009369,35.9931983948
AMQ,Pattimura International Airport,Ambon,ID,-3.71026,128.089005
AMS,Amsterdam Airport Schiphol,Amsterdam,NL,52.308601,4.76389
AMV,Amderma Airport,Amderma,RU,69.76329803466797,61.556400299072266
ANC,Ted Stevens Anchorage International Airport,Anchorage,US,61.179004,-149.992561
ANF,Andrés Sabella Gálvez International Airport,Antofagasta,CL,-23.445274,-70.445232
ANI,Aniak Airport,Aniak,US,61.581600189208984,-159.54299926757812
ANR,Antwerp International Airport (Deurne),Antwerp,BE,51.190667,4.463153
ANS,Andahuaylas Airport,Andahuaylas,PE,-13.70639991760254,-73.35040283203125
ANU,V. C. Bird International Airport,Osbourn,AG,17.1367,-61.792702
ANV,Anvik Airport,Anvik,US,62.646702,-160.190994
ANX,"Andøya Airport, Andenes",Andenes,NO,69.295193,16.139379
AOE,Hasan Polatkan Airport,Eskişehir,TR,39.811644,30.519268
AOG,Anshan Teng'ao Airport / Anshan Air Base,Anshan,CN,41.105301,122.853996
AOI,Marche Airport,Falconara Marittima (AN),IT,43.616299,13.3623
AOJ,Aomori Airport,Aomori,JP,40.733777,140.689477
AOK,Karpathos Airport,Karpathos Island,GR,35.421398,27.146
AOO,Altoona Blair County Airport,Altoona,US,40.296398,-78.32
AOR,Sultan Abdul Halim Airport,Alor Satar,MY,6.189670085906982,100.39800262451172
APK,Apataki Airport,Apataki,PF,-15.5736,-146.414993
APL,Nampula Airport,Nampula,MZ,-15.105600357055664,39.28179931640625
APN,Alpena County Regional Airport,Alpena,US,45.0780983,-83.56030273
APO,Antonio Roldán Betancur Airport,Carepa,CO,7.81196,-76.7164
APW,Faleolo International Airport,Apia,WS,-13.83,-172.007996
AQA,Araraquara Airport,Araraquara,BR,-21.812,-48.132999
AQG,Anqing Tianzhushan Airport / Anqing North Air Base,Anqing,CN,30.582199,117.050003
AQI,Al Qaisumah/Hafr Al Batin Airport,Qaisumah,SA,28.335199,46.125099
AQJ,King Hussein International Airport,Aqaba,JO,29.611601,35.018101
AQP,Rodríguez Ballón International Airport,Arequipa,PE,-16.340786,-71.569485
ARC,Arctic Village Airport,Arctic Village,US,68.1147,-145.578995
ARD,Alor Island - Mali Airport,Kabola,ID,-8.13234,124.597
ARH,Talagi Airport,Archangelsk,RU,64.60030364990234,40.71670150756836
ARI,Chacalluta Airport,Arica,CL,-18.348499,-70.338699
ARK,Arusha Airport,Arusha,TZ,-3.3677899837493896,36.63330078125
ARM,Armidale Airport,Armidale,AU,-30.528099060099997,151.617004395
ARN,Stockholm-Arlanda Airport,Stockholm,SE,59.64849,17.928829
ART,Watertown International Airport,Watertown,US,43.991901,-76.021698
ARU,Araçatuba Airport,Araçatuba,BR,-21.141479,-50.424575
ARW,Arad International Airport,Arad,RO,46.176136,21.264322
ASA,Assab International Airport,Assab,ER,13.0718,42.645
ASB,Ashgabat International Airport,Ashgabat,TM,37.986801,58.361
ASD,Andros Town Airport,Andros Town,BS,24.697901,-77.795601
ASE,Aspen-Pitkin County Airport (Sardy Field),Aspen,US,39.223202,-106.869003
ASF,Astrakhan Narimanovo Boris M. Kustodiev International Airport,Astrakhan,RU,46.282843,48.010511
ASI,RAF Ascension Island,Cat Hill,SH,-7.970179,-14.392744
ASJ,Amami Airport,Amami,JP,28.430599212646484,129.71299743652344
ASM,Asmara International Airport,Asmara,ER,15.2919,38.910702
ASO,Asosa Airport,Asosa,ET,10.018500328063965,34.586299896240234
ASP,Alice Springs Airport,Alice Springs,AU,-23.806588,133.903427
ASR,Kayseri Erkilet International Airport,Kayseri,TR,38.770401,35.495399
ASU,Aeropuerto Internacional Silvio Pettirossi,Asunción,PY,-25.240156,-57.519227
ASV,Amboseli Airport,Amboseli National Park,KE,-2.645050048828125,37.25310134887695
ASW,Aswan International Airport,Aswan,EG,23.961075,32.820382
ATC,Arthur's Town Airport,Arthur's Town,BS,24.6294,-75.673797
ATH,Athens Eleftherios Venizelos International Airport,Spata-Artemida,GR,37.936401,23.9445
ATK,Atqasuk Edward Burnell Sr Memorial Airport,Atqasuk,US,70.46704,-157.436013
ATL,Hartsfield Jackson Atlanta International Airport,Atlanta,US,33.6367,-84.428101
ATM,Altamira Interstate Airport,Altamira,BR,-3.253144,-52.253938
ATQ,Sri Guru Ram Das Ji International Airport,Amritsar,IN,31.7096,74.797302
ATR,Atar International Airport,Atar,MR,20.505823,-13.043744
ATT,Atmautluak Airport,Atmautluak,US,60.866699,-162.272996
ATW,Appleton International Airport,Appleton,US,44.258515,-88.519
ATY,Watertown Regional Airport,Watertown,US,44.91400146,-97.15470123
ATZ,Asyut International Airport,Asyut,EG,27.045962,31.01276
AUA,Queen Beatrix International Airport,Oranjestad,AW,12.501056,-70.014281
AUC,Santiago Perez Airport,Arauca,CO,7.06888,-70.7369
AUG,Augusta State Airport,Augusta,US,44.320598602299995,-69.7973022461
AUH,Zayed International Airport,Abu Dhabi,AE,24.440966,54.649237
AUK,Alakanuk Airport,Alakanuk,US,62.682653,-164.722481
AUL,Aur Island Airport,Aur Atoll,MH,8.14528,171.173004
AUQ,Hiva Oa-Atuona Airport,Hiva Oa Island,PF,-9.76879024506,-139.011001587
AUR,Aurillac airport,Aurillac,FR,44.891399,2.42194
AUS,Austin Bergstrom International Airport,Austin,US,30.197535,-97.662015
AUU,Aurukun Airport,Aurukun,AU,-13.354019,141.720028
AUX,Araguaína Airport,Araguaína,BR,-7.22787,-48.240501
AVA,Anshun Huangguoshu Airport,Anshun (Xixiu),CN,26.260556,105.873333
AVK,Arvaikheer Airport,Arvaikheer,MN,46.250301361083984,102.802001953125
AVL,Asheville Regional Airport,Asheville,US,35.435488,-82.541853
AVN,Avignon Caumont airport,Avignon,FR,43.907299,4.90183
AVP,Wilkes-Barre/Scranton International Airport,Wilkes-Barre/Scranton,US,41.337064,-75.724232
AVV,Melbourne Avalon International Airport,Geelong/Melbourne,AU,-38.040269,144.467196
AWA,Hawassa International Airport,Hawassa,ET,7.100611,38.396455
AWK,Wake Island Airfield,Wake Island,UM,19.282437,166.636637
AWZ,Qasem Soleimani International Airport,Ahvaz,IR,31.3364,48.763789
AXA,Clayton J. Lloyd International Airport,The Valley,AI,18.204773,-63.05383
AXD,Alexandroupoli Democritus Airport,Alexandroupolis,GR,40.8559,25.956301
AXF,Alxa Left Banner Bayanhot Airport,Bayanhot,CN,38.748317,105.58416
AXJ,Amakusa Airport,Amakusa,JP,32.482498,130.158997
AXM,El Eden Airport,Armenia,CO,4.45278,-75.7664
AXP,Spring Point Airport,Spring Point,BS,22.441799,-73.970901
AXR,Arutua Airport,,PF,-15.248299598693848,-146.61700439453125
AXT,Akita Airport,Akita,JP,39.615601,140.218994
AXU,Axum Airport,Axum,ET,14.1468,38.7728
AYJ,Maharshi Valmiki International Airport,Faizabad,IN,26.747736,82.163664
AYP,Air Force Colonel Alfredo Mendivil Duarte Airport,Ayacucho,PE,-13.1548,-74.204399
AYQ,Ayers Rock Connellan Airport,Yulara,AU,-25.185913,130.97703
AYT,Antalya International Airport,Antalya,TR,36.898701,30.800501
AZA,Mesa Gateway Airport,Mesa,US,33.3078,-111.654999
AZD,Shahid Sadooghi Airport,Yazd,IR,31.9048995972,54.2765007019
AZN,Andijan International Airport,Andijan,UZ,40.727699,72.293999
AZO,Kalamazoo/Battle Creek International Airport,Kalamazoo,US,42.232105,-85.549637
AZR,Touat-Cheikh Sidi Mohamed Belkebir Airport,Adrar,DZ,27.837601,-0.186414
AZS,Samaná El Catey International Airport,Samana,DO,19.269259,-69.737405
BAG,Loakan Airport,Baguio,PH,16.375034,120.619949
BAH,Bahrain International Airport,Manama,BH,26.267295,50.63764
BAL,Batman Airport,Batman,TR,37.929001,41.1166
BAQ,Ernesto Cortissoz International Airport,Barranquilla,CO,10.8896,-74.7808
BAR,Qionghai Bo'ao Airport,Qionghai (Basuo),CN,19.140951,110.452766
BAS,Ballalae Airport,Ballalae,SB,-6.990745,155.886656
BAV,Baotou Donghe International Airport,Baotou,CN,40.560001,109.997002
BAX,Barnaul Gherman Titov International Airport,Barnaul,RU,53.361285,83.539701
BAY,Maramureș International Airport,Tăuții-Măgherăuș,RO,47.658444,23.464445
BAZ,Barcelos Airport,Barcelos,BR,-0.981191,-62.918603
BBA,Balmaceda Airport,Balmaceda,CL,-45.915968,-71.689499
BBG,Butaritari Airport,Butaritari,KI,3.08583,172.811005
BBI,Biju Patnaik International Airport,Bhubaneswar,IN,20.251021,85.814747
BBK,Kasane International Airport,Kasane,BW,-17.831653,25.166195
BBM,Battambang Airport,Battambang,KH,13.0956,103.223999
BBN,Bario Airport,Bario,MY,3.734648,115.478548
BBO,Berbera Airport,Berbera,SO,10.385035,44.936723
BBQ,Burton-Nibbs International Airport,Codrington,AG,17.621194,-61.798347
BBR,Basse-Terre Baillif Airport,Basse-Terre,GP,16.013648,-61.742928
BBU,Bucharest Băneasa Aurel Vlaicu International Airport,Bucharest,RO,44.503133,26.102944
BCA,Gustavo Rizo Airport,Baracoa,CU,20.365299224853516,-74.5062026977539
BCD,Bacolod-Silay International Airport,Bacolod City,PH,10.776237,123.018879
BCH,Baucau Airport,Baucau,TL,-8.486479,126.399981
BCI,Barcaldine Airport,Barcaldine,AU,-23.566268,145.302086
BCM,Bacău George Enescu International  Airport,Bacău,RO,46.5219,26.910299
BCN,Josep Tarradellas Barcelona-El Prat Airport,Barcelona,ES,41.2971,2.07846
BCO,Baco Airport,Jinka,ET,5.749655,36.560165
BCU,Sir Abubakar Tafawa Balewa Bauchi State International Airport,Bauchi,NG,10.482833,9.744
BDA,L.F. Wade International Airport,Hamilton,BM,32.363802,-64.67824
BDB,Bundaberg Airport,Bundaberg,AU,-24.905039,152.322612
BDD,Badu Island Airport,Badu Island,AU,-10.14955,142.173665
BDH,Bandar Lengeh International Airport,Bandar Lengeh,IR,26.532283,54.82484
BDJ,Syamsudin Noor International Airport,Landasan Ulin,ID,-3.44236,114.763
BDL,Bradley International Airport,Hartford,US,41.938555,-72.688016
BDO,Husein Sastranegara International Airport,Bandung,ID,-6.90063,107.575996
BDP,Bhadrapur Airport,Bhadrapur,NP,26.5708007812,88.07959747310001
BDQ,Vadodara International Airport,Vadodara,IN,22.336201,73.226303
BDS,Brindisi Airport,Brindisi,IT,40.6576,17.947001
BDT,Gbadolite Airport,Gbadolite,CD,4.252745,20.975271
BDU,Bardufoss Airport,Målselv,NO,69.055801,18.5404
BEB,Benbecula Airport,Balivanich,GB,57.481098,-7.36278
BED,Laurence G Hanscom Field,Bedford,US,42.470001,-71.289001
BEF,Bluefields Airport,Bluefields,NI,11.991,-83.774101
BEG,Belgrade Nikola Tesla Airport,Belgrade,RS,44.818401,20.309099
BEJ,Kalimarau Airport,Tanjung Redeb - Borneo Island,ID,2.14776,117.430705
BEK,Bareilly Air Force Station,Bareilly,IN,28.4221,79.450798
BEL,Val de Cans/Júlio Cezar Ribeiro International Airport,Belém,BR,-1.379279,-48.476207
BEM,Beni Mellal Airport,Oulad Yaich,MA,32.401895,-6.315905
BEN,Benina International Airport,Benina,LY,32.096802,20.269501
BER,Berlin Brandenburg Airport,Berlin,DE,52.361738,13.502341
BES,Brest Bretagne airport,Brest,FR,48.447899,-4.41854
BET,Bethel Airport,Bethel,US,60.77980042,-161.8379974
BEU,Bedourie Airport,Bedourie,AU,-24.3461,139.460007
BEW,Beira International Airport,Beira,MZ,-19.7964,34.9076
BEY,Beirut Rafic Hariri International Airport,Beirut,LB,33.819833,35.487443
BFD,Bradford Regional Airport,Bradford,US,41.8031005859375,-78.64009857177734
BFF,Western Neb. Rgnl/William B. Heilig Airport,Scottsbluff,US,41.87400055,-103.5960007
BFI,King County International Airport - Boeing Field,Seattle,US,47.527042,-122.29995
BFJ,Bijie Feixiong Airport,Bijie,CN,27.267066,105.472097
BFL,Meadows Field,Bakersfield,US,35.433601,-119.056999
BFN,Bram Fischer International Airport,Bloemfontein,ZA,-29.092699,26.302401
BFQ,Bahia Piña Airport,Puerto Piña,PA,7.58737,-78.179939
BFS,Belfast International Airport,Belfast,GB,54.6575012207,-6.2158298492399995
BFV,Buri Ram Airport,Buriram,TH,15.2295,103.252998
BGA,Palonegro Airport,Bucaramanga,CO,7.1265,-73.1848
BGC,Bragança Airport,Bragança,PT,41.8578,-6.70713
BGF,Bangui M'Poko International Airport,Bangui,CF,4.39848,18.518801
BGG,Bingöl Airport,Bingöl,TR,38.860131,40.594489
BGI,Grantley Adams International Airport,Bridgetown,BB,13.074667,-59.491034
BGK,Big Creek Airport,Big Creek,BZ,16.519369,-88.407913
BGM,Greater Binghamton/Edwin A Link field,Binghamton,US,42.20869827,-75.97979736
BGO,"Bergen Airport, Flesland",Bergen,NO,60.2934,5.21814
BGR,Bangor International Airport,Bangor,US,44.806364,-68.826668
BGW,Baghdad International Airport / New Al Muthana Air Base,Baghdad,IQ,33.262501,44.2346
BGY,Il Caravaggio International Airport,Orio al Serio (BG),IT,45.669362,9.708851
BHB,Hancock County-Bar Harbor Airport,Bar Harbor,US,44.45000076,-68.3615036
BHD,George Best Belfast City Airport,Belfast,GB,54.618099,-5.8725
BHE,Woodbourne Airport,Blenheim,NZ,-41.5182991027832,173.8699951171875
BHH,Bisha Airport,Bisha,SA,19.9844,42.620899
BHI,Comandante Espora Airport,Bahía Blanca,AR,-38.725,-62.1693
BHJ,Bhuj Airport,Bhuj,IN,23.2877998352,69.6701965332
BHK,Bukhara International Airport,Bukhara,UZ,39.775002,64.483299
BHM,Birmingham-Shuttlesworth International Airport,Birmingham,US,33.562877,-86.750712
BHO,Raja Bhoj International Airport,Bhopal,IN,23.2875,77.337402
BHQ,Broken Hill Airport,Broken Hill,AU,-32.0013999939,141.472000122
BHR,Bharatpur Airport,Bharatpur,NP,27.678101,84.429398
BHS,Bathurst Airport,Bathurst,AU,-33.406817,149.651161
BHU,Bhavnagar Airport,Bhavnagar,IN,21.752199173,72.1852035522
BHV,Bahawalpur Airport,Bahawalpur,PK,29.348100662231445,71.71800231933594
BHX,Birmingham Airport,"Birmingham, West Midlands",GB,52.453899,-1.74803
BHY,Beihai Fucheng Airport,Beihai,CN,21.538659,109.293683
BIA,Bastia-Poretta International airport,Bastia,FR,42.5527,9.48373
BIC,Aérodrome de Belle Île,Bangor,FR,47.325256,-3.201255
BID,Block Island State Airport,Block Island,US,41.168446,-71.578631
BIH,Eastern Sierra Regional Airport,Bishop,US,37.3731,-118.363998
BIK,Frans Kaisiepo Airport,Biak,ID,-1.19002,136.108002
BIL,Billings Logan International Airport,Billings,US,45.807824,-108.533667
BIM,South Bimini Airport,South Bimini,BS,25.6998996735,-79.2647018433
BIO,Bilbao Airport,Bilbao,ES,43.301102,-2.91061
BIQ,Biarritz Pays Basque airport,Biarritz,FR,43.468372,-1.523223
BIR,Biratnagar Airport,Biratnagar,NP,26.48150062561035,87.26399993896484
BIS,Bismarck Municipal Airport,Bismarck,US,46.772734,-100.746874
BJA,Soummam–Abane Ramdane Airport,Béjaïa,DZ,36.712547,5.069909
BJB,Bojnord Airport,Bojnord,IR,37.49300003051758,57.30820083618164
BJC,Rocky Mountain Metropolitan Airport,Denver,US,39.908798,-105.116997
BJF,Båtsfjord Airport,Båtsfjord,NO,70.60025,29.692612
BJL,Banjul International Airport,Yundum,GM,13.338,-16.652201
BJM,Bujumbura Melchior Ndadaye International Airport,Bujumbura,BI,-3.32402,29.318501
BJR,Bahir Dar Airport,Bahir Dar,ET,11.6081,37.321602
BJV,Milas Bodrum International Airport,Bodrum,TR,37.249314,27.66401
BJX,Guanajuato International Airport,Silao,MX,20.992695,-101.480284
BJZ,Badajoz Airport,Badajoz,ES,38.8913,-6.82133
BKC,Buckland Airport,Buckland,US,65.981598,-161.149002
BKG,Branson Airport,Branson,US,36.532082,-93.200544
BKI,Kota Kinabalu International Airport,Kota Kinabalu,MY,5.932743,116.049324
BKK,Suvarnabhumi Airport,Bangkok,TH,13.6811,100.747002
BKM,Bakalalan Airport,Bakalalan,MY,3.974,115.617996
BKN,Balkanabat Airport,Balkanabat,TM,39.480598,54.366001
BKO,Modibo Keita International Airport,Bamako,ML,12.5335,-7.94994
BKQ,Blackall Airport,Blackall,AU,-24.431678,145.429716
BKS,Fatmawati Soekarno Airport,Bengkulu,ID,-3.8637,102.338997
BKW,Raleigh County Memorial Airport,Beaver,US,37.7873,-81.124199
BKZ,Bukoba Airport,Bukoba,TZ,-1.332,31.8212
BLA,General José Antonio Anzoategui International Airport,Barcelona,VE,10.111111,-64.692222
BLB,Panamá Pacífico International Airport,Panamá City,PA,8.91479,-79.599602
BLD,Boulder City Municipal Airport,Boulder City,US,35.947161,-114.858799
BLE,Dala Airport,Borlange,SE,60.422001,15.5152
BLI,Bellingham International Airport,Bellingham,US,48.79280090332031,-122.53800201416016
BLJ,Batna Mostefa Ben Boulaid Airport,Batna,DZ,35.752102,6.30859
BLL,Billund Airport,Billund,DK,55.740335,9.157019
BLQ,Bologna Guglielmo Marconi Airport,Bologna,IT,44.5354,11.2887
BLR,Kempegowda International Airport Bengaluru,Bengaluru,IN,13.1979,77.706299
BLV,Scott AFB/Midamerica Airport,Belleville,US,38.5452,-89.835197
BLW,Beledweyne Airport,Beledweyne,SO,4.766976,45.2388
BLZ,Chileka International Airport,Blantyre,MW,-15.677189,34.972319
BMA,Stockholm-Bromma Airport,Stockholm,SE,59.354401,17.9417
BME,Broome International Airport,Broome,AU,-17.949194,122.2283
BMI,Central Illinois Regional Airport at Bloomington-Normal,Bloomington/Normal,US,40.4771,-88.915901
BMK,Borkum Airport,Borkum,DE,53.59639,6.709167
BMO,Banmaw Airport,Banmaw,MM,24.27044,97.2476
BMR,Baltrum Airport,Baltrum,DE,53.72485,7.373257
BMU,Sultan Muhammad Salahuddin Airport,"Palibelo, Bima",ID,-8.537184,118.685002
BMV,Buon Ma Thuot Airport,Buon Ma Thuot,VN,12.668299675,108.120002747
BMW,Bordj Badji Mokhtar Airport,Bordj Badji Mokhtar,DZ,21.3778,0.92698
BMY,Île Art - Waala Airport,Waala,NC,-19.720521,163.661077
BNA,Nashville International Airport,Nashville,US,36.1245,-86.6782
BNB,Boende Airport,Boende,CD,-0.286652,20.883551
BND,Bandar Abbas International Airport,Bandar Abbas,IR,27.2183,56.3778
BNE,Brisbane International Airport,Brisbane,AU,-27.384199142456055,153.11700439453125
BNI,Benin Airport,Benin,NG,6.316979885101318,5.5995001792907715
BNK,Ballina Byron Gateway Airport,Ballina,AU,-28.833236,153.561471
BNN,"Brønnøysund Airport, Brønnøy",Brønnøy,NO,65.461098,12.2175
BNS,Barinas Airport,Barinas,VE,8.615,-70.214167
BNX,Banja Luka International Airport,Mahovljani,BA,44.941399,17.297501
BNY,Bellona/Anua Airport,Anua,SB,-11.3022222222,159.798333333
BOB,Bora Bora Airport,Motu Mute,PF,-16.444400787353516,-151.75100708007812
BOC,"Bocas del Toro ""Isla Colón"" International Airport",Isla Colón,PA,9.34085,-82.250801
BOD,Bordeaux–Mérignac Airport,Bordeaux,FR,44.82865,-0.715356
BOG,El Dorado International Airport,Bogota,CO,4.70159,-74.1469
BOH,Bournemouth Airport,Bournemouth,GB,50.780483,-1.839576
BOI,Boise Air Terminal/Gowen Field,Boise,US,43.5644,-116.223
BOJ,Burgas Airport,Burgas,BG,42.569917,27.515173
BOM,Chhatrapati Shivaji Maharaj International Airport,Mumbai,IN,19.088699,72.867897
BON,Flamingo International Airport,Kralendijk,BQ,12.131,-68.268501
BOO,Bodø Airport,Bodø,NO,67.269203,14.3653
BOR,Bokeo International Airport,Ton Phueng,LA,20.323986,100.165392
BOS,General Edward Lawrence Logan International Airport,Boston,US,42.36197,-71.0079
BOT,Bosset Airport,Bosset,PG,-7.237257,141.1063222
BOY,Bobo Dioulasso Airport,Bobo Dioulasso,BF,11.1601,-4.33097
BPE,Qinhuangdao Beidaihe Airport,Qinhuangdao (Changli),CN,39.666384,119.061384
BPL,Bole Alashankou Airport,Bole,CN,44.895461,82.30007
BPN,Sultan Aji Muhammad Sulaiman Sepinggan International Airport,Balikpapan,ID,-1.268342,116.89452
BPS,Porto Seguro International Airport,Porto Seguro,BR,-16.438426,-39.080584
BPT,Jack Brooks Regional Airport,Beaumont/Port Arthur,US,29.9508,-94.020699
BPX,Qamdo Bangda Airport,Bangda,CN,30.553600311279297,97.1082992553711
BPY,Besalampy Airport,Besalampy,MG,-16.74453,44.482484
BQB,Busselton Margaret River Regional Airport,Busselton,AU,-33.687222,115.400278
BQG,Bogorodskoye Airport,Bogorodskoye,RU,52.381041,140.449378
BQJ,Batagay Airport,Batagay,RU,67.648003,134.695007
BQK,Brunswick Golden Isles Airport,Brunswick,US,31.258801,-81.466499
BQL,Boulia Airport,,AU,-22.913299560546875,139.89999389648438
BQN,Rafael Hernández International Airport,Aguadilla,PR,18.4949,-67.129402
BQS,Ignatyevo Airport,Blagoveschensk,RU,50.42539978027344,127.41200256347656
BQT,Brest International Airport,Brest,BY,52.108138,23.89676
BQU,J F Mitchell Airport,Bequia,VC,12.9884,-61.262001
BRA,Dom Ricardo Weberberger Airport,Barreiras,BR,-12.0789,-45.008999
BRB,Barreirinhas National Airport,Barreirinhas,BR,-2.756644,-42.803187
BRC,Teniente Luis Candelaria International Airport,San Carlos de Bariloche,AR,-41.151199,-71.157501
BRD,Brainerd Lakes Regional Airport,Brainerd,US,46.402861,-94.129727
BRE,Bremen Airport,Bremen,DE,53.046786,8.78932
BRI,Bari Karol Wojtyła International Airport,Bari,IT,41.138901,16.760599
BRK,Bourke Airport,,AU,-30.03919982910156,145.95199584960938
BRL,Southeast Iowa Regional Airport,Burlington,US,40.783199310302734,-91.12550354003906
BRM,Jacinto Lara International Airport,Barquisimeto,VE,10.042747,-69.35862
BRN,Bern Airport,Bern,CH,46.912736,7.498819
BRO,Brownsville South Padre Island International Airport,Brownsville,US,25.907238,-97.425235
BRQ,Brno-Tuřany Airport,Brno,CZ,49.151276,16.693972
BRR,Barra Airport,Eoligarry,GB,57.0228,-7.44306
BRS,Bristol Airport,Bristol,GB,51.382326,-2.716453
BRU,Brussels Airport,Zaventem,BE,50.901402,4.48444
BRW,Wiley Post Will Rogers Memorial Airport,Utqiaġvik,US,71.285402,-156.766008
BRX,Maria Montez International Airport,Barahona,DO,18.25149917602539,-71.12039947509766
BSA,Bender Qassim International Airport,Bosaso,SO,11.275235,49.139231
BSB,Presidente Juscelino Kubitschek International Airport,Brasília,BR,-15.869167,-47.920834
BSC,José Celestino Mutis Airport,Bahía Solano,CO,6.20292,-77.3947
BSD,Baoshan Yunrui Airport,Baoshan (Longyang),CN,25.053301,99.168297
BSG,Bata International Airport,Bata,GQ,1.90547,9.80568
BSK,Biskra - Mohamed Khider Airport,Biskra,DZ,34.79318,5.738899
BSL,EuroAirport Basel–Mulhouse–Freiburg,Bâle / Mulhouse,FR,47.60068,7.521117
BSO,Basco Airport,Basco,PH,20.4513,121.980003
BSR,Basra International Airport,Basra,IQ,30.549101,47.662102
BSX,Pathein Airport,Pathein,MM,16.815201,94.7799
BSZ,Manas International Airport,Bishkek,KG,43.061298,74.4776
BTC,Batticaloa International Airport,Batticaloa,LK,7.705073,81.677163
BTH,Hang Nadim International Airport,Batam,ID,1.12103,104.119003
BTI,Barter Island Long Range Radar Station Airport,Barter Island,US,70.134003,-143.582001
BTJ,Sultan Iskandar Muda International Airport,Banda Aceh,ID,5.525087,95.41997
BTK,Bratsk Airport,Bratsk,RU,56.3696,101.701822
BTM,Bert Mooney Airport,Butte,US,45.95479965209961,-112.49700164794922
BTR,Baton Rouge Metropolitan Airport,Baton Rouge,US,30.533199,-91.149597
BTS,M. R. Štefánik Airport,Bratislava,SK,48.1702,17.2127
BTT,Bettles Airport,Bettles,US,66.913902,-151.529007
BTU,Bintulu Airport,Bintulu,MY,3.12385010719,113.019996643
BTV,Patrick Leahy Burlington International Airport,Burlington,US,44.471901,-73.153297
BTW,Bersujud Airport,Batu Licin,ID,-3.41241,115.995003
BUA,Buka Airport,Buka Island,PG,-5.422299,154.672698
BUC,Burketown Airport,,AU,-17.748600006103516,139.53399658203125
BUD,Budapest Liszt Ferenc International Airport,Budapest,HU,47.43018,19.262393
BUF,Buffalo Niagara International Airport,Buffalo,US,42.940498,-78.732201
BUI,Bokondini Airport,Bokondini,ID,-3.68455,138.677437
BUN,Gerardo Tobar López Airport,Buenaventura,CO,3.81963,-76.9898
BUQ,Joshua Mqabuko Nkomo International Airport,Bulawayo,ZW,-20.016284,28.622897
BUR,Bobe Hope / Hollywood Burbank Airport,Burbank,US,34.202834,-118.35805
BUS,Alexander Kartveli Batumi International Airport,Batumi,GE,41.60939,41.600315
BUT,Bathpalathang Airport,Jakar,BT,27.5622,90.7471
BUU,Muara Bungo Airport,Muara Bungo,ID,-1.541635,102.181613
BUX,Bunia Airport,Bunia,CD,1.565743,30.220685
BUZ,Bushehr Airport,Bushehr,IR,28.9447994232,50.8345985413
BVA,Beauvais-Tillé airport,Beauvais,FR,49.454399,2.11278
BVB,Atlas Brasil Cantanhede Airport,Boa Vista,BR,2.845855,-60.690944
BVC,Aristides Pereira International Airport,Rabil,CV,16.136499,-22.888901
BVE,Brive Souillac airport,Brive,FR,45.039722,1.485556
BVG,Berlevåg Airport,Berlevåg,NO,70.871517,29.034097
BVH,Brigadeiro Camarão Airport,Vilhena,BR,-12.6944,-60.098301
BVI,Birdsville Airport,,AU,-25.897499084472656,139.34800720214844
BVJ,Bovanenkovo Airport,Bovanenkovo,RU,70.315278,68.333611
BVS,Breves Airport,Breves,BR,-1.63653,-50.4436
BWA,Gautam Buddha International Airport,Siddharthanagar (Bhairahawa),NP,27.504591,83.414618
BWI,Baltimore/Washington International Thurgood Marshall Airport,Baltimore,US,39.1754,-76.668297
BWK,Brač Airport,Gornji Humac,HR,43.284454,16.678362
BWN,Brunei International Airport,Bandar Seri Begawan,BN,4.9442,114.928001
BWO,Balakovo Airport,Balakovo,RU,51.858299,47.745602
BWT,Wynyard Airport,Burnie,AU,-40.997039,145.726
BWX,Banyuwangi Airport,"Rogojampi, Banyuwangi",ID,-8.31015,114.3401
BXG,Bendigo Airport,,AU,-36.739399,144.330002
BXH,Balkhash Airport,Balkhash,KZ,46.894246,75.004533
BXR,Bam Airport,Bam,IR,29.0842,58.450001
BXT,LNG Badak Airport,Bontang-Borneo Island,ID,0.121656,117.476558
BXU,Bancasi Airport,Butuan,PH,8.9515,125.4788
BXY,Baikonur Krayniy International Airport,Baikonur,KZ,45.621994,63.210773
BYK,Bouaké Airport,Bouaké,CI,7.7388,-5.07367
BYM,Carlos Manuel de Cespedes Airport,Bayamo,CU,20.3964,-76.621399
BYN,Bayankhongor Airport,Bayankhongor,MN,46.1633,100.704002
BYO,Bonito Airport,Bonito,BR,-21.2473,-56.452399
BYR,Læsø Airport,Læsø,DK,57.277199,11.0001
BYW,Blakely Island Airport,Blakely Island,US,48.579162,-122.823844
BZE,Philip S. W. Goldson International Airport,Belize City,BZ,17.539951,-88.303556
BZG,Ignacy Jan Paderewski Bydgoszcz Airport,Bydgoszcz,PL,53.096802,17.977699
BZI,Balıkesir Airport,Balıkesir,TR,39.619301,27.926001
BZK,Bryansk International Airport,Bryansk,RU,53.214199,34.176399
BZL,Barisal Airport,Barisal,BD,22.801001,90.301201
BZN,Bozeman Yellowstone International Airport,Bozeman,US,45.778853,-111.153711
BZO,Bolzano Airport,Bolzano (BZ),IT,46.459245,11.326125
BZR,Béziers Vias airport,Béziers,FR,43.323502,3.3539
BZV,Maya-Maya International Airport,Brazzaville,CG,-4.2517,15.253
BZX,Bazhong Enyang Airport,Bazhong,CN,31.73842,106.644872
CAB,Cabinda Airport,Cabinda,AO,-5.59839,12.188145
CAC,Coronel Adalberto Mendes da Silva Airport,Cascavel,BR,-25.000323,-53.501208
CAE,Columbia Metropolitan Airport,Columbia,US,33.938172,-81.117499
CAF,Carauari Airport,Carauari,BR,-4.871473,-66.897552
CAG,Cagliari Elmas Airport,Cagliari,IT,39.251499,9.05428
CAH,Cà Mau Airport,Ca Mau City,VN,9.177667,105.177778
CAI,Cairo International Airport,Cairo,EG,30.111534,31.396694
CAJ,Canaima Airport,Canaima,VE,6.231989,-62.85485
CAK,Akron Canton Regional Airport,Akron,US,40.91609954833984,-81.44219970703125
CAL,Campbeltown Airport,Campbeltown,GB,55.437199,-5.68639
CAN,Guangzhou Baiyun International Airport,Guangzhou (Huadu),CN,23.392401,113.299004
CAP,Cap Haitien International Airport,Cap Haitien,HT,19.725547,-72.20071
CAT,Cascais Airport,Cascais,PT,38.724998,-9.35523
CAU,Caruaru Airport,Caruaru,BR,-8.28239,-36.0135
CAW,Bartolomeu Lisandro Airport,Campos dos Goytacazes,BR,-21.698299,-41.301701
CAY,Cayenne – Félix Eboué Airport,Matoury,GF,4.819964,-52.361326
CAZ,Cobar Airport,,AU,-31.538299560546875,145.79400634765625
CBB,Jorge Wilsterman International Airport,Cochabamba,BO,-17.421105,-66.177102
CBH,Béchar Boudghene Ben Ali Lotfi Airport,Béchar,DZ,31.64570045471191,-2.269860029220581
CBO,Cotabato (Awang) Airport,Datu Odin Sinsuat,PH,7.164753,124.209938
CBQ,Margaret Ekpo International Airport,Calabar,NG,4.976019859313965,8.347200393676758
CBR,Canberra Airport,Canberra,AU,-35.3069,149.195007
CBT,Catumbela Airport,Catumbela,AO,-12.4792,13.4869
CCA,Chimore Airport,Chimore,BO,-16.976834,-65.145568
CCC,Jardines Del Rey Airport,Cayo Coco,CU,22.4610004425,-78.32839965820001
CCE,Capital International Airport,New Cairo,EG,30.06465,31.839974
CCF,Carcassonne Salvaza Airport,Carcassonne,FR,43.216,2.30632
CCJ,Calicut International Airport,Calicut,IN,11.135996,75.955152
CCK,Cocos (Keeling) Islands Airport,West Island,CC,-12.192218,96.834103
CCM,Forquilhinha - Criciúma  Airport,Criciúma,BR,-28.725743,-49.424475
CCP,Carriel Sur International Airport,Concepcion,CL,-36.77235,-73.062828
CCR,Buchanan Field,Concord,US,37.9897,-122.056999
CCS,Maiquetía Simón Bolívar International Airport,Maiquetía,VE,10.602214,-66.991174
CCU,Netaji Subhash Chandra Bose International Airport,Kolkata,IN,22.654012,88.44765
CCV,Craig Cove Airport,Craig Cove,VU,-16.264999,167.923996
CCZ,Chub Cay Airport,Chub Cay,BS,25.417101,-77.880898
CDB,Cold Bay Airport,Cold Bay,US,55.207871,-162.725029
CDC,Cedar City Regional Airport,Cedar City,US,37.70100021362305,-113.0989990234375
CDE,Chengde Puning Airport,Chengde,CN,41.1225,118.073889
CDG,Charles de Gaulle International Airport,"Paris (Roissy-en-France, Val-d'Oise)",FR,49.00896,2.554117
CDP,Kadapa Airport,Kadapa,IN,14.513154,78.769183
CDR,Chadron Municipal Airport,Chadron,US,42.837601,-103.095001
CDT,Castellón-Costa Azahar Airport,Castellón de la Plana,ES,40.213889,0.073333
CDV,Merle K (Mudhole) Smith Airport,Cordova,US,60.491798,-145.477997
CEB,Mactan Cebu International Airport,Cebu City/Lapu-Lapu City,PH,10.309261,123.97974
CEC,Jack Mc Namara Field Airport,Crescent City,US,41.778929,-124.236403
CED,Ceduna Airport,,AU,-32.13059997558594,133.7100067138672
CEE,Cherepovets Airport,Cherepovets,RU,59.273601532,38.0158004761
CEI,Mae Fah Luang - Chiang Rai International Airport,Chiang Rai,TH,19.952299,99.882896
CEK,Kurchatov Chelyabinsk International Airport,Chelyabinsk,RU,55.303141,61.504927
CEL,Canela Airport,Canela,BR,-29.370091,-50.831729
CEM,Central Airport,Central,US,65.573815,-144.780707
CEN,Ciudad Obregón International Airport,Ciudad Obregón,MX,27.39259910583496,-109.83300018310548
CEZ,Cortez Municipal Airport,Cortez,US,37.303001,-108.627998
CFB,Cabo Frio Airport,Cabo Frio,BR,-22.921485,-42.071874
CFE,Clermont-Ferrand Auvergne airport,Clermont-Ferrand,FR,45.786701,3.16917
CFG,Jaime Gonzalez Airport,Cienfuegos,CU,22.149999618530273,-80.41419982910156
CFK,Chlef Aboubakr Belkaid International Airport,Chlef,DZ,36.216614,1.341114
CFN,Donegal Airport,Donegal,IE,55.0442008972168,-8.340999603271484
CFR,Caen Carpiquet airport,Caen,FR,49.17678,-0.454883
CFS,Coffs Harbour Airport,Coffs Harbour,AU,-30.320601,153.115997
CFU,Corfu Ioannis Kapodistrias International Airport,Kerkyra (Corfu),GR,39.60145,19.912179
CGB,Várzea Grande–Marechal Rondon International Airport,Cuiabá,BR,-15.6529,-56.116699
CGD,Changde Taohuayuan Airport,Changde (Dingcheng),CN,28.9189,111.639999
CGH,Congonhas–Deputado Freitas Nobre Airport,São Paulo,BR,-23.627657,-46.654601
CGI,Cape Girardeau Regional Airport,Cape Girardeau,US,37.2253,-89.570801
CGK,Soekarno-Hatta International Airport,Jakarta,ID,-6.12557,106.655998
CGM,Camiguin Airport,Mambajao,PH,9.253894,124.709115
CGN,Cologne Bonn Airport,Köln (Cologne),DE,50.865898,7.14274
CGO,Zhengzhou Xinzheng International Airport,Zhengzhou,CN,34.526497,113.849165
CGP,Shah Amanat International Airport,Chattogram (Chittagong),BD,22.249599,91.813301
CGQ,Changchun Longjia International Airport,Changchun,CN,43.996201,125.684998
CGR,Campo Grande Airport,Campo Grande,BR,-20.469998,-54.673988
CGY,Laguindingan International Airport,Laguindingan,PH,8.612203,124.456496
CHA,Chattanooga Metropolitan Airport (Lovell Field),Chattanooga,US,35.035301,-85.203796
CHC,Christchurch International Airport,Christchurch,NZ,-43.489029,172.532065
CHG,Chaoyang Airport,"Shuangta, Chaoyang",CN,41.538101,120.434998
CHH,Chachapoyas Airport,Chachapoyas,PE,-6.201911,-77.856195
CHM,FAP Lieutenant Jaime Andres de Montreuil Morales Airport,Chimbote,PE,-9.14961,-78.523804
CHO,Charlottesville Albemarle Airport,Charlottesville,US,38.13859939575195,-78.4529037475586
CHQ,Chania International Airport,Souda,GR,35.531207,24.150673
CHS,Charleston International Airport,Charleston,US,32.896159,-80.038151
CHT,Inia William Tuuta Memorial Airport,Te One,NZ,-43.81189,-176.46514
CHU,Chuathbaluk Airport,Chuathbaluk,US,61.579102,-159.216003
CHX,Changuinola Captain Manuel Niño International Airport,Changuinola,PA,9.458962,-82.515062
CHY,Choiseul Bay Airport,Choiseul Bay,SB,-6.711944,156.396111
CIA,Ciampino–G. B. Pastine International Airport,Rome,IT,41.798769,12.595331
CID,The Eastern Iowa Airport,Cedar Rapids,US,41.884701,-91.7108
CIF,Chifeng Yulong Airport,Chifeng,CN,42.159723,118.840971
CIH,Changzhi Wangcun Airport,Changzhi,CN,36.247501,113.125999
CIJ,Capitán Aníbal Arab Airport,Cobija,BO,-11.039109,-68.782774
CIK,Chalkyitsik Airport,Chalkyitsik,US,66.644997,-143.740005
CIT,Shymkent International Airport,Shymkent,KZ,42.365021,69.47564
CIU,Chippewa County International Airport,Kincheloe,US,46.242038,-84.462082
CIW,Canouan Airport,Canouan,VC,12.699,-61.3424
CIX,Capitán FAP José A. Quiñones González International Airport,Chiclayo,PE,-6.789223,-79.828254
CIY,Comiso Airport,Comiso,IT,36.99583,14.60889
CJA,Mayor General FAP Armando Revoredo Iglesias Airport,Cajamarca,PE,-7.13918,-78.489403
CJB,Coimbatore International Airport,Coimbatore,IN,11.03,77.043404
CJC,El Loa Airport,Calama,CL,-22.498199,-68.903603
CJJ,Cheongju International Airport/Cheongju Air Base (K-59/G-513),Cheongju,KR,36.71556,127.500289
CJL,Chitral Airport,Chitral,PK,35.886213,71.799922
CJM,Chumphon Airport,Chumphon,TH,10.7112,99.361702
CJN,Nusawiru Airport,Cijulang,ID,-7.719895,108.488995
CJS,Abraham González International Airport,Ciudad Juárez,MX,31.636673,-106.428533
CJU,Jeju International Airport,Jeju City,KR,33.512058,126.492548
CJZ,Pedro Vieira Moreira Airport,Cajazeiras,BR,-6.8827,-38.61583
CKB,North Central West Virginia Airport,Bridgeport,US,39.2966,-80.228104
CKD,Crooked Creek Airport,Crooked Creek,US,61.870315,-158.137636
CKG,Chongqing Jiangbei International Airport,Chongqing,CN,29.712254,106.651895
CKH,Chokurdakh Airport,Chokurdah,RU,70.6231,147.901993
CKS,Carajás Airport,Parauapebas,BR,-6.117841,-50.003372
CKW,Christmas Creek Airport,Christmas Creek Mine,AU,-22.354302,119.642603
CKX,Chicken Airport,Chicken,US,64.066495,-141.951342
CKY,Ahmed Sékou Touré International Airport,Conakry,GN,9.57689,-13.612
CKZ,Çanakkale Airport,Çanakkale,TR,40.1376991272,26.4267997742
CLD,McClellan-Palomar Airport,Carlsbad,US,33.1283,-117.279999
CLE,Cleveland Hopkins International Airport,Cleveland,US,41.411701,-81.8498
CLJ,Avram Iancu Cluj International Airport,Cluj-Napoca,RO,46.786042,23.685733
CLL,Easterwood Field,College Station,US,30.5886,-96.3638
CLO,Alfonso Bonilla Aragon International Airport,Cali,CO,3.542717,-76.381898
CLP,Clarks Point Airport,Clarks Point,US,58.833698,-158.529007
CLQ,Licenciado Miguel de la Madrid International Airport,Colima,MX,19.277,-103.577002
CLT,Charlotte Douglas International Airport,Charlotte,US,35.2140007019043,-80.94309997558594
CLV,Nelson Ribeiro Guimarães Airport,Caldas Novas,BR,-17.725096,-48.606324
CLY,Calvi Sainte Catherine Airport,Calvi,FR,42.530422,8.792984
CMA,Cunnamulla Airport,,AU,-28.030000686645508,145.6219940185547
CMB,Bandaranaike International Colombo Airport,Colombo,LK,7.180759906768799,79.88410186767578
CME,Ciudad del Carmen International Airport,Ciudad del Carmen,MX,18.65369987487793,-91.79900360107422
CMF,Chambéry Aix les Bains airport,Chambéry,FR,45.6381,5.88023
CMG,Corumbá International Airport,Corumbá,BR,-19.01193,-57.672772
CMH,John Glenn Columbus International Airport,Columbus,US,39.998001,-82.891899
CMI,University of Illinois Willard Airport,Savoy,US,40.039819,-88.276249
CMN,Mohammed V International Airport,Casablanca,MA,33.3675,-7.58997
CMU,Chimbu Airport,Kundiawa,PG,-6.024290084838867,144.9709930419922
CMW,Ignacio Agramonte International Airport,Camaguey,CU,21.419909,-77.848039
CMX,Houghton County Memorial Airport,Hancock,US,47.168399810791016,-88.48909759521484
CNB,Coonamble Airport,,AU,-30.980946,148.377833
CNC,Coconut Island Airport,,AU,-10.050139,143.070007
CND,Mihail Kogălniceanu International Airport,Constanța,RO,44.362202,28.4883
CNF,Tancredo Neves International Airport,Belo Horizonte,BR,-19.63571,-43.966928
CNI,Changhai Dachangshandao Airport,Dalian (Changhai),CN,39.266441,122.66696
CNJ,Cloncurry Airport,Cloncurry,AU,-20.6686000824,140.503997803
CNM,Cavern City Air Terminal,Carlsbad,US,32.337501525878906,-104.26300048828124
CNN,Kannur International Airport,Kannur,IN,11.916343,75.544979
CNP,Neerlerit Inaat Airport,Neerlerit Inaat,GL,70.743103,-22.650499
CNQ,Corrientes Airport,Corrientes,AR,-27.4455,-58.7619
CNS,Cairns International Airport,Cairns,AU,-16.878921,145.74948
CNX,Chiang Mai International Airport,Chiang Mai,TH,18.766799926799997,98.962600708
CNY,Canyonlands Regional Airport,Moab,US,38.755001,-109.754997
COD,Yellowstone Regional Airport,Cody,US,44.520199,-109.024002
COK,Cochin International Airport,Kochi,IN,10.151047,76.400838
COL,Coll Airport,Coll Island,GB,56.601898,-6.61778
COO,Cotonou Cadjehoun International Airport,Cotonou,BJ,6.35723,2.38435
COQ,Choibalsan Airport,,MN,48.135381,114.647231
COR,Ingeniero Aeronáutico Ambrosio L.V. Taravella International Airport,Cordoba,AR,-31.312346,-64.208329
COS,City of Colorado Springs Municipal Airport,Colorado Springs,US,38.805801,-104.700996
COU,Columbia Regional Airport,Columbia,US,38.8181,-92.219597
COV,Çukurova International Airport,Tarsus,TR,36.891478,35.071235
CPC,Aviador C. Campos Airport,Chapelco/San Martin de los Andes,AR,-40.075401,-71.137299
CPD,Coober Pedy Airport,Coober Pedy,AU,-29.038312,134.722166
CPE,Ingeniero Alberto Acuña Ongay International Airport,Campeche,MX,19.815969,-90.500125
CPH,Copenhagen Kastrup Airport,Copenhagen,DK,55.617900848389,12.656000137329
CPO,Desierto de Atacama Airport,Copiapo,CL,-27.2611999512,-70.7791976929
CPR,Casper-Natrona County International Airport,Casper,US,42.907381,-106.461609
CPT,Cape Town International Airport,Cape Town,ZA,-33.97403,18.604333
CPV,Presidente João Suassuna Airport,Campina Grande,BR,-7.269662,-35.896057
CPX,Benjamin Rivera Noriega Airport,Culebra,PR,18.312954,-65.303893
CQW,Chongqing Xiannüshan Airport,Wulong,CN,29.465658,107.693664
CRA,Craiova International Airport,Craiova,RO,44.3181,23.888599
CRD,General Enrique Mosconi International Airport,Comodoro Rivadavia,AR,-45.786941,-67.463355
CRI,Colonel Hill Airport,Colonel Hill,BS,22.7456,-74.182404
CRK,Clark International Airport / Clark Air Base,Mabalacat,PH,15.186,120.559998
CRL,Brussels South Charleroi Airport,Charleroi,BE,50.461963,4.459562
CRM,Catarman National Airport,Catarman,PH,12.50161,124.635258
CRP,Corpus Christi International Airport,Corpus Christi,US,27.770399,-97.501198
CRU,Lauriston Airport,Carriacou Island,GD,12.4761,-61.472801
CRV,Crotone Sant'Anna Pythagoras Airport,Isola di Capo Rizzuto (KR),IT,38.9972,17.0802
CRW,Yeager Airport,Charleston,US,38.3731,-81.593201
CRZ,Türkmenabat International Airport,Türkmenabat,TM,38.930662,63.563982
CSA,Colonsay Airstrip,Colonsay,GB,56.057499,-6.24306
CSG,Columbus Airport,Columbus,US,32.516415,-84.939602
CSH,Solovki Airport,Solovetsky Islands,RU,65.029999,35.733334
CSK,Cap Skirring Airport,Cap Skirring,SN,12.39533,-16.748
CSW,Cabo San Lucas International Airport,Cabo San Lucas,MX,22.949072,-109.939479
CSX,Changsha Huanghua International Airport,Changsha (Changsha),CN,28.189199,113.220001
CSY,Cheboksary Airport,Cheboksary,RU,56.090302,47.347301
CTA,Catania-Fontanarossa Airport,Catania,IT,37.466801,15.0664
CTC,Coronel Felipe Varela International Airport,Catamarca,AR,-28.593117,-65.7512
CTD,Alonso Valderrama Airport,Chitré,PA,7.98784,-80.409837
CTG,Rafael Nuñez International Airport,Cartagena,CO,10.4424,-75.513
CTL,Charleville Airport,Charleville,AU,-26.4132995605,146.261993408
CTM,Chetumal International Airport,Chetumal,MX,18.504985,-88.328018
CTN,Cooktown Airport,,AU,-15.443649,145.183221
CTS,New Chitose Airport,Sapporo,JP,42.774753,141.690414
CTU,Chengdu Shuangliu International Airport,Chengdu (Shuangliu),CN,30.558257,103.945966
CUA,Ciudad Constitución National Airport,Comondú,MX,25.053801,-111.614998
CUC,Camilo Daza International Airport,Cúcuta,CO,7.92757,-72.5115
CUE,Mariscal Lamar Airport,Cuenca,EC,-2.88947,-78.984398
CUF,Cuneo International Airport,Levaldigi (CN),IT,44.547458,7.623045
CUK,Caye Caulker Airport,Caye Caulker,BZ,17.735015,-88.032862
CUL,Bachigualato Federal International Airport,Culiacán,MX,24.76504,-107.475228
CUM,Antonio José de Sucre Airport,Cumaná,VE,10.450333,-64.13047
CUN,Cancún International Airport,Cancún,MX,21.040817,-86.87347
CUP,General Francisco Bermúdez Airport,Carúpano,VE,10.660014,-63.261681
CUQ,Coen Airport,Coen,AU,-13.761133,143.113311
CUR,Hato International Airport,Willemstad,CW,12.1889,-68.959801
CUU,General Roberto Fierro Villalobos International Airport,Chihuahua,MX,28.702649,-105.963764
CUZ,Alejandro Velasco Astete International Airport,Cusco,PE,-13.535699844400002,-71.9387969971
CVG,Cincinnati Northern Kentucky International Airport,Cincinnati / Covington,US,39.048801,-84.667801
CVM,General Pedro Jose Mendez International Airport,Ciudad Victoria,MX,23.7033,-98.956497
CVN,Clovis Municipal Airport,Clovis,US,34.426594,-103.078794
CVQ,Carnarvon Airport,Carnarvon,AU,-24.884337,113.666393
CVU,Corvo Airport,Corvo,PT,39.671501,-31.1136
CWA,Central Wisconsin Airport,Mosinee,US,44.777448,-89.670238
CWB,Curitiba-Afonso Pena International Airport,Curitiba,BR,-25.5285,-49.1758
CWC,Chernivtsi International Airport,Chernivtsi,UA,48.259300231933594,25.98080062866211
CWJ,Cangyuan Washan Airport,Lincang (Cangyuan),CN,23.276331,99.373169
CWL,Cardiff International Airport,Cardiff,GB,51.396702,-3.34333
CWS,Center Island Airport,Center Island,US,48.490046,-122.831612
CXB,Cox's Bazar Airport,Cox's Bazar,BD,21.457517,91.963263
CXI,Cassidy International Airport,Kiritimati,KI,1.986278,-157.350011
CXJ,Hugo Cantergiani Regional Airport,Caxias Do Sul,BR,-29.197183,-51.187647
CXP,Tunggul Wulung Airport,Cilacap,ID,-7.64506,109.033997
CXR,Cam Ranh International Airport / Cam Ranh Air Base,Nha Trang/nha Trang aiurportCam Ranh,VN,11.9982,109.219002
CYA,Antoine-Simon International Airport,Les Cayes,HT,18.271099,-73.7883
CYB,Charles Kirkconnell International Airport,West End,KY,19.687,-79.882797
CYC,Caye Chapel Airport,Caye Chapel,BZ,17.683792,-88.044985
CYF,Chefornak Airport,Chefornak,US,60.136667,-164.279167
CYI,Chiayi Airport,Shuishang,TW,23.462577,120.390544
CYO,Vilo Acuña International Airport,Cayo Largo del Sur,CU,21.6165008545,-81.5459976196
CYP,Calbayog Airport,Calbayog City,PH,12.072574,124.54508
CYS,Cheyenne Regional Jerry Olson Field,Cheyenne,US,41.155701,-104.811997
CYT,Yakataga Airport,Yakataga,US,60.080974,-142.494541
CYU,Cuyo Airport,Cuyo,PH,10.8581,121.069
CYX,Cherskiy Airport,Cherskiy,RU,68.7406005859375,161.33799743652344
CYZ,Cauayan Airport,Cauayan City,PH,16.9298992157,121.752998352
CZE,José Leonardo Chirinos Airport,Coro,VE,11.414944,-69.680901
CZH,Corozal Airport,Corozal,BZ,18.3822,-88.411903
CZL,Mohamed Boudiaf International Airport,Constantine,DZ,36.276001,6.62039
CZM,Cozumel International Airport,Cozumel,MX,20.514922,-86.928538
CZS,Cruzeiro do Sul Airport,Cruzeiro Do Sul,BR,-7.59991,-72.769501
CZU,Las Brujas Airport,Corozal,CO,9.33274,-75.2856
CZX,Changzhou Benniu International Airport,Changzhou,CN,31.920485,119.77546
DAB,Daytona Beach International Airport,Daytona Beach,US,29.18255,-81.059464
DAC,Hazrat Shahjalal International Airport,Dhaka,BD,23.843347,90.397783
DAD,Da Nang International Airport,Da Nang,VN,16.0439,108.198997
DAL,Dallas Love Field,Dallas,US,32.844776,-96.847653
DAM,Damascus International Airport,Damascus,SY,33.4114990234375,36.51559829711914
DAR,Julius Nyerere International Airport,Dar es Salaam,TZ,-6.873499,39.207288
DAT,Datong Yungang International Airport,Datong,CN,40.06139,113.480509
DAU,Daru Airport,Daru,PG,-9.08676,143.207993
DAV,Enrique Malek International Airport,David,PA,8.388983,-82.436425
DAX,Dachuan Airport,Dazhou (Daxian),CN,31.1302,107.4295
DAY,James M. Cox Dayton International Airport,Dayton,US,39.902401,-84.219398
DBA,Dalbandin Airport,Dalbandin,PK,28.8782997131,64.3998031616
DBB,El Alamein International Airport,El Alamein,EG,30.924324,28.46161
DBC,Baicheng Chang'an Airport,Baicheng,CN,45.505278,123.019722
DBO,Dubbo City Regional Airport,Dubbo,AU,-32.2167015076,148.574996948
DBQ,Dubuque Regional Airport,Dubuque,US,42.402,-90.709503
DBR,Darbhanga Airport,Darbhanga,IN,26.192801,85.916901
DBV,Dubrovnik Ruđer Bošković Airport,Dubrovnik,HR,42.562247,18.265543
DCA,Ronald Reagan Washington National Airport,Washington,US,38.8521,-77.037697
DCF,Canefield Airport,Canefield,DM,15.336693,-61.392108
DCM,Castres Mazamet Airport,Castres,FR,43.556301,2.28918
DCY,Daocheng Yading Airport,Garzê (Daocheng),CN,29.31632,100.060317
DDC,Dodge City Regional Airport,Dodge City,US,37.76340103149414,-99.9655990600586
DDG,Dandong Langtou International Airport,Dandong (Zhenxing),CN,40.025453,124.28669
DDR,Rikaze Dingri Airport,Xigazê (Dingri),CN,28.604567,86.798
DEA,Dera Ghazi Khan Airport,Dera Ghazi Khan,PK,29.961000442504883,70.48590087890625
DEB,Debrecen International Airport,Debrecen,HU,47.489469,21.616278
DEC,Decatur Airport,Decatur,US,39.834598541259766,-88.8656997680664
DED,Dehradun Jolly Grant Airport,Dehradun (Jauligrant),IN,30.189243,78.176651
DEE,Yuzhno-Kurilsk Mendeleyevo Airport,Yuzhno-Kurilsk,RU,43.961066,145.684977
DEF,Dezful Airport,Dezful,IR,32.434399,48.397598
DEL,Indira Gandhi International Airport,New Delhi,IN,28.55563,77.09519
DEM,Dembidollo Airport,Dembidollo,ET,8.554,34.858002
DEN,Denver International Airport,Denver,US,39.860027,-104.673792
DEX,Nop Goliat Dekai Airport,Dekai,ID,-4.8557,139.482006
DFW,Dallas Fort Worth International Airport,Dallas-Fort Worth,US,32.896801,-97.038002
DGA,Dangriga Airport,Dangriga,BZ,16.98251,-88.230988
DGH,Deoghar Airport,Deoghar,IN,24.446842,86.704955
DGO,General Guadalupe Victoria International Airport,Durango,MX,24.125468,-104.527938
DGT,Sibulan Airport,Dumaguete City,PH,9.334183,123.30191
DHM,Kangra Airport,Kangra,IN,32.164902,76.263018
DHN,Dothan Regional Airport,Dothan,US,31.321300506591797,-85.44960021972656
DIA,Doha International Airport,Doha,QA,25.259431,51.565528
DIB,Dibrugarh Airport,Dibrugarh,IN,27.4839000702,95.0168991089
DIE,Arrachart Airport,Antisiranana,MG,-12.3494,49.291698
DIG,Diqing Shangri-La Airport,Diqing (Shangri-La),CN,27.7936,99.6772
DIJ,Dijon Longvic airport,Dijon,FR,47.268902,5.09
DIK,Dickinson Theodore Roosevelt Regional Airport,Dickinson,US,46.797533,-102.801905
DIL,Presidente Nicolau Lobato International Airport,Dili,TL,-8.546562,125.524507
DIN,Dien Bien Phu Airport,Dien Bien Phu,VN,21.3974990845,103.008003235
DIR,Aba Tenna Dejazmach Yilma International Airport,Dire Dawa,ET,9.623549,41.855027
DIU,Diu Airport,Diu,IN,20.714185,70.921855
DIY,Diyarbakır Airport,Diyarbakır,TR,37.893902,40.201
DJB,Sultan Thaha Airport,Jambi,ID,-1.638685,103.645063
DJE,Djerba Zarzis International Airport,Mellita,TN,33.873719,10.7773
DJG,Tiska Djanet Airport,Djanet,DZ,24.285448,9.463652
DJJ,Dortheys Hiyo Eluay International Airport,Sentani,ID,-2.579627,140.519857
DKA,Umaru Musa Yar'adua Airport,Katsina,NG,13.0078,7.66045
DKR,Léopold Sédar Senghor International Airport,Dakar,SN,14.742337,-17.479222
DLA,Douala International Airport,Douala,CM,4.00608,9.71948
DLC,Dalian Zhoushuizi International Airport,Dalian (Ganjingzi),CN,38.965719,121.538477
DLE,Dole Tavaux Airport,Dole,FR,47.038955,5.427589
DLG,Dillingham Airport,Dillingham,US,59.04470062,-158.5050049
DLH,Duluth International Airport,Duluth,US,46.842098,-92.193604
DLI,Lien Khuong Airport,Da Lat,VN,11.750556,108.366997
DLM,Dalaman International Airport,Dalaman,TR,36.7131,28.7925
DLR,Dalnerechensk Airport,Dalnerechensk,RU,45.877949,133.735822
DLU,Dali Fengyi Airport,Dali (Xiaguan),CN,25.649401,100.319
DLZ,Dalanzadgad Airport,Dalanzadgad,MN,43.608628,104.367734
DMB,Taraz International Airport,Taraz,KZ,42.8536,71.303596
DMD,Doomadgee Airport,,AU,-17.9403,138.822006
DME,Domodedovo International Airport,Moscow,RU,55.408798,37.9063
DMK,Don Mueang International Airport,Bangkok,TH,13.9126,100.607002
DMM,King Fahd International Airport,Ad Dammam,SA,26.4691,49.798209
DMU,Dimapur Airport,Dimapur,IN,25.8838996887,93.7711029053
DND,Dundee Airport,Dundee,GB,56.452499,-3.02583
DNH,Dunhuang Mogao International Airport,Dunhuang,CN,40.164041,94.811722
DNK,Dnipro International Airport,Dnipro,UA,48.357201,35.100601
DNR,Dinard Pleurtuit Saint-Malo airport,Dinard,FR,48.5877,-2.07996
DNZ,Çardak Airport,Denizli,TR,37.7855987549,29.7012996674
DOD,Dodoma Airport,Dodoma,TZ,-6.17044,35.752602
DOG,Dongola Airport,Dongola,SD,19.153900146499996,30.4300994873
DOH,Hamad International Airport,Doha,QA,25.273056,51.608056
DOL,Deauville Normandie airport,Deauville,FR,49.365237,0.154481
DOM,Douglas-Charles Airport,Marigot,DM,15.546673,-61.301082
DOP,Dolpa Airport,Dolpa,NP,28.985659,82.818703
DOV,Dover Civil Air Terminal/Dover Air Force Base,Dover,US,39.129501,-75.466003
DOY,Dongying Shengli Airport,Dongying (Kenli),CN,37.50137,118.789863
DPL,Dipolog Airport,Dipolog,PH,8.601983,123.341875
DPO,Devonport Airport,Devonport,AU,-41.1697006226,146.429992676
DPS,Denpasar I Gusti Ngurah Rai International Airport,"Kuta, Badung",ID,-8.748409,115.167123
DPT,Deputatskiy Airport,Deputatskiy,RU,69.392503,139.890012
DQA,Daqing Sartu Airport,Daqing,CN,46.750883,125.138642
DQM,Duqm International Airport,Duqm,OM,19.501944,57.634167
DRG,Deering Airport,Deering,US,66.068901,-162.766914
DRJ,Drietabbetje Airport,Drietabbetje,SR,4.111359,-54.672766
DRO,Durango La Plata County Airport,Durango,US,37.151501,-107.753998
DRP,Bicol International Airport,Legazpi,PH,13.111915,123.676829
DRS,Dresden Airport,Dresden,DE,51.134123,13.767831
DRV,Dharavandhoo Airport,Baa Atoll,MV,5.1561,73.1302
DRW,Darwin International Airport / RAAF Darwin,Darwin,AU,-12.41497,130.88185
DSD,La Désirade Airport,Grande Anse,GP,16.296902,-61.0844
DSE,Kombolcha Airport,Dessie,ET,11.10975,39.725911
DSI,Destin Executive Airport,Destin,US,30.400101,-86.471497
DSM,Des Moines International Airport,Des Moines,US,41.534027,-93.656719
DSN,Ordos Ejin Horo International Airport,Ordos,CN,39.493514,109.8599
DSO,Sondok Airport,Sŏndŏng-ni,KP,39.745201,127.473999
DSS,Blaise Diagne International Airport,Dakar,SN,14.670878,-17.072829
DSY,Dara Sakor International Airport,Ta Noun,KH,10.914244,103.226652
DTB,Silangit Airport,Siborong-Borong,ID,2.25973,98.991898
DTD,Datadawai Airport,Datadawai-Borneo Island,ID,0.807028,114.529052
DTM,Dortmund Airport,Dortmund,DE,51.518299,7.61224
DTR,Decatur Shores Airport,Decatur,US,48.500171,-122.813973
DTU,Wudalianchi Dedu Airport,Heihe,CN,48.441037,126.128374
DTW,Detroit Metropolitan Wayne County Airport,Detroit,US,42.21377,-83.353786
DUB,Dublin Airport,Dublin,IE,53.428713,-6.262121
DUD,Dunedin International Airport,Dunedin,NZ,-45.929017,170.197758
DUE,Dundo Airport,Chitato,AO,-7.400889873504639,20.818500518798828
DUJ,DuBois Regional Airport,Dubois,US,41.17829895,-78.8986969
DUM,Pinang Kampai Airport,Dumai,ID,1.609026,101.433493
DUR,King Shaka International Airport,Durban,ZA,-29.6144444444,31.1197222222
DUS,Düsseldorf Airport,Düsseldorf,DE,51.289501,6.76678
DUT,Tom Madsen (Dutch Harbor) Airport,Unalaska,US,53.89881,-166.544996
DVL,Devils Lake Regional Airport,Devils Lake,US,48.115454,-98.908796
DVO,Francisco Bangoy International Airport,Davao,PH,7.12552,125.646004
DWB,Soalala Airport,Soalala,MG,-16.10169,45.358837
DWC,Al Maktoum International Airport,Dubai(Jebel Ali),AE,24.896171,55.16235
DWD,Dawadmi Domestic Airport,Dawadmi,SA,24.4499,44.121201
DXB,Dubai International Airport,Dubai,AE,25.2527999878,55.3643989563
DXJ,Xiangxi Biancheng Airport,Xiangxi,CN,28.4972,109.5218
DYG,Zhangjiajie Hehua International Airport,Zhangjiajie (Yongding),CN,29.104749,110.442786
DYR,Ugolny Yuri Ryktheu Airport,Anadyr,RU,64.734902,177.740997
DYU,Dushanbe International Airport,Dushanbe,TJ,38.543746,68.822977
DZA,Dzaoudzi Pamandzi International Airport,Dzaoudzi,YT,-12.809319,45.281815
DZH,Dazhou Jinya Airport,Dazhou (Dachuan),CN,31.048815,107.435646
DZN,Zhezkazgan National Airport,Zhezkazgan,KZ,47.708953,67.738094
EAA,Eagle Airport,Eagle,US,64.778003,-141.150455
EAM,Najran Domestic Airport,Najran,SA,17.611401,44.419201
EAR,Kearney Regional Airport,Kearney,US,40.727001,-99.006798
EAS,San Sebastián Airport,Hondarribia,ES,43.356499,-1.79061
EAT,Pangborn Memorial Airport,Wenatchee,US,47.398899,-120.207001
EAU,Chippewa Valley Regional Airport,Eau Claire,US,44.86579895019531,-91.48429870605467
EAX,Eduard Alexander Gummels Airport,Kwatta,SR,5.8604,-55.192
EBA,Marina di Campo Airport,Campo nell'Elba (LI),IT,42.760871,10.239811
EBB,Entebbe International Airport,Kampala,UG,0.042386,32.443501
EBD,El-Obeid Airport,El-Obeid,SD,13.1532,30.2327
EBJ,Esbjerg Airport,Esbjerg,DK,55.525902,8.5534
EBL,Erbil International Airport,Arbil,IQ,36.236047,43.946615
ECN,Ercan International Airport,Tymbou (Kirklar),CY,35.153064,33.507352
ECP,Northwest Florida Beaches International Airport,Panama City Beach,US,30.357106,-85.795414
EDI,Edinburgh Airport,Edinburgh,GB,55.950145,-3.372288
EDL,Eldoret International Airport,Eldoret,KE,0.404458,35.238899
EDO,Balıkesir Koca Seyit Airport,Edremit,TR,39.552533,27.010192
EDR,Pormpuraaw Airport,Pormpuraaw,AU,-14.896451,141.60908
EEK,Eek Airport,Eek,US,60.213173,-162.044048
EFL,Kefallinia Airport,Kefallinia Island,GR,38.12009811401367,20.500499725341797
EGC,Bergerac Dordogne-Périgord airport,Bergerac,FR,44.825298,0.518611
EGE,Eagle County Regional Airport,Eagle,US,39.64260101,-106.9179993
EGO,Belgorod International Airport,Belgorod,RU,50.643798828125,36.5900993347168
EGS,Egilsstaðir Airport,Egilsstaðir,IS,65.2833023071289,-14.401399612426758
EGX,Egegik Airport,Egegik,US,58.184386,-157.374873
EHU,Ezhou Huahu International Airport,Ezhou,CN,30.341178,115.03926
EIE,Yeniseysk Airport,Yeniseysk,RU,58.474201,92.112503
EIK,Yeysk Airport,Yeysk,RU,46.68,38.21
EIN,Eindhoven Airport,Eindhoven,NL,51.4500999451,5.37452983856
EIS,Terrance B. Lettsome International Airport,Beef Island,VG,18.445492,-64.541707
EJA,Yariguíes Airport,Barrancabermeja,CO,7.02433,-73.8068
EJH,Al Wajh Domestic Airport,Al Wajh,SA,26.198601,36.476398
EJT,Enejit Airport,Enejit Island,MH,6.0404,171.9846
EKO,Elko Regional Airport,Elko,US,40.82490158081055,-115.79199981689452
EKS,Shakhtyorsk Airport,Shakhtyorsk,RU,49.1903,142.082993
ELC,Elcho Island Airport,Elcho Island,AU,-12.019399642899998,135.570999146
ELD,South Arkansas Regional Airport at Goodwin Field,El Dorado,US,33.221001,-92.813301
ELF,El Fasher Airport,El Fasher,SD,13.61489963531494,25.32460021972656
ELG,El Golea Airport,El Menia,DZ,30.580732,2.861595
ELH,North Eleuthera Airport,North Eleuthera,BS,25.475823,-76.680784
ELI,Elim Airport,Elim,US,64.6147,-162.272003
ELM,Elmira Corning Regional Airport,Elmira/Corning,US,42.1599006652832,-76.8916015625
ELP,El Paso International Airport,El Paso,US,31.809908,-106.375607
ELQ,Prince Naif bin Abdulaziz International Airport,Qassim,SA,26.302799,43.774399
ELS,King Phalo Airport,East London,ZA,-33.035599,27.825899
ELU,Guemar Airport - مطار قمار بالوادي,Guemar,DZ,33.511398,6.77679
EMA,East Midlands Airport,Nottingham,GB,52.8311,-1.32806
EMD,Emerald Airport,Emerald,AU,-23.5674991608,148.179000854
EME,Emden Airport,Emden,DE,53.391109,7.2275
EMK,Emmonak Airport,Emmonak,US,62.78609848,-164.4909973
ENA,Kenai Municipal Airport,Kenai,US,60.570946,-151.245174
ENE,H. Hasan Aroeboesman (Ende) Airport,Ende,ID,-8.849114,121.66101
ENF,Enontekio Airport,Enontekio,FI,68.362602233887,23.424299240112
ENH,Enshi Xujiaping Airport,Enshi (Enshi),CN,30.320299,109.485001
ENI,El Nido Airport,El Nido,PH,11.202399,119.416087
ENO,Aeropuerto Internacional Tte. Amín Ayub González,Encarnación,PY,-27.227537,-55.837584
ENT,Eniwetok Airport,Eniwetok Atoll,MH,11.340700149536133,162.3280029296875
ENU,Akanu Ibiam International Airport,Enegu,NG,6.473718,7.560463
ENY,Yan'an Nanniwan Airport,Yan'an (Baota),CN,36.479413,109.464083
EOH,Enrique Olaya Herrera Airport,Medellín,CO,6.219686,-75.590597
EOI,Eday Airport,Eday,GB,59.19060134887695,-2.7722198963165283
EPR,Esperance Airport,Esperance,AU,-33.684399,121.822998
EPU,Pärnu Airport,Pärnu,EE,58.41899871826172,24.47279930114746
EQS,Esquel Brigadier Antonio Parodi International Airport,Esquel,AR,-42.908001,-71.139503
ERC,Erzincan Airport,Erzincan,TR,39.7102012634,39.527000427199994
ERF,Erfurt-Weimar Airport,Erfurt,DE,50.978281,10.960713
ERH,Moulay Ali Cherif Airport,Errachidia,MA,31.9475002289,-4.39833021164
ERI,Erie International Tom Ridge Field,Erie,US,42.083127,-80.173867
ERL,Erenhot Saiwusu International Airport,Erenhot,CN,43.424079,112.091081
ERS,Eros Airport,Windhoek,,-22.60492,17.079002
ERZ,Erzurum International Airport,Erzurum,TR,39.956501,41.1702
ESB,Esenboğa International Airport,Ankara,TR,40.128101,32.995098
ESC,Delta County Airport,Escanaba,US,45.723199,-87.088623
ESD,Orcas Island Airport,Eastsound,US,48.708199,-122.910004
ESL,Elista Airport,Elista,RU,46.3739013671875,44.33089828491211
ESM,Carlos Concha Torres International Airport,Tachina,EC,0.978519,-79.626602
ESR,Ricardo García Posada Airport,El Salvador,CL,-26.3111,-69.765198
ESU,Essaouira-Mogador Airport,Essaouira,MA,31.397499,-9.68167
ETM,Ramon International Airport,Eilat,IL,29.727009,35.014116
ETR,Santa Rosa - Artillery Colonel Victor Larrea International Airport,Santa Rosa,EC,-3.441986,-79.996957
ETZ,Metz-Nancy-Lorraine Airport,Goin,FR,48.982101,6.25132
EUA,Kaufana Airport,Eua Island,TO,-21.3782997131,-174.957992554
EUG,Eugene Airport,Eugene,US,44.124599,-123.211998
EUN,Laayoune Hassan I International Airport,El Aaiún,EH,27.142467,-13.224947
EUX,F. D. Roosevelt Airport,Oranjestad,BQ,17.4965,-62.979401
EVE,Harstad/Narvik Airport,Evenes,NO,68.491302,16.678101
EVG,Sveg Airport,Sveg,SE,62.047798,14.4229
EVN,Zvartnots International Airport,Yerevan,AM,40.148941,44.397887
EVV,Evansville Regional Airport,Evansville,US,38.0369987488,-87.5324020386
EWB,New Bedford Regional Airport,New Bedford,US,41.67610168457031,-70.95690155029297
EWN,Coastal Carolina Regional Airport,New Bern,US,35.0730018616,-77.04290008539999
EWR,Newark Liberty International Airport,Newark,US,40.692501,-74.168701
EXT,Exeter International Airport,"Exeter, Devon",GB,50.734261,-3.413984
EYK,Beloyarskiy Airport,,RU,63.686901,66.698601
EYP,El Alcaravan - Yopal Airport,Yopal,CO,5.31911,-72.384
EYW,Key West International Airport,Key West,US,24.556101,-81.759598
EZE,Ezeiza International Airport - Ministro Pistarini,Buenos Aires (Ezeiza),AR,-34.8222,-58.5358
EZS,Elazığ Airport,Elazığ,TR,38.597974,39.28348
FAE,Vágar Airport,Vágar,FO,62.063256,-7.275782
FAI,Fairbanks International Airport,Fairbanks,US,64.815102,-147.856003
FAO,Faro - Gago Coutinho International Airport,Faro,PT,37.015909,-7.970939
FAR,Hector International Airport,Fargo,US,46.9207,-96.815804
FAT,Fresno Yosemite International Airport,Fresno,US,36.775767,-119.718018
FAV,Fakarava Airport,,PF,-16.054100036621094,-145.65699768066406
FAY,Fayetteville Regional Airport - Grannis Field,Fayetteville,US,34.991199,-78.880302
FBD,Fayzabad Airport,Fayzabad,AF,37.122148,70.5201
FBE,Paulo Abdala Airport,Francisco Beltrão,BR,-26.05938,-53.063827
FBM,Lubumbashi International Airport,Lubumbashi,CD,-11.591494,27.530753
FCA,Glacier Park International Airport,Kalispell,US,48.310501,-114.255997
FCN,Sea-Airport Cuxhaven/Nordholz / Nordholz Naval Airbase,Wurster Nordseeküste,DE,53.767689,8.659201
FCO,Rome–Fiumicino Leonardo da Vinci International Airport,Rome,IT,41.804532,12.251998
FDE,"Førde Airport, Bringeland",Førde,NO,61.391102,5.75694
FDF,Martinique Aimé Césaire International Airport,Fort-de-France,MQ,14.591,-61.003201
FDH,Bodensee Airport Friedrichshafen,Friedrichshafen,DE,47.671299,9.51149
FDU,Bandundu Airport,Bandundu,CD,-3.31132,17.381701
FEC,João Durval Carneiro Airport,Feira de Santana,BR,-12.200694,-38.906164
FEG,Fergana International Airport,Fergana,UZ,40.358799,71.745003
FEN,Fernando de Noronha Airport,Fernando de Noronha,BR,-3.854534,-32.423017
FEZ,Fes Saïss International Airport,Saïss,MA,33.927299,-4.97796
FGU,Fangatau Airport,Fangatau,PF,-15.820044,-140.888071
FHZ,Fakahina Airport,Fakahina,PF,-15.992259,-140.164246
FIE,Fair Isle Airport,Fair Isle,GB,59.534721,-1.628509
FIH,Ndjili International Airport,Kinshasa,CD,-4.38575,15.4446
FIZ,Fitzroy Crossing Airport,,AU,-18.183596,125.559783
FJR,Fujairah International Airport,Fujairah,AE,25.108411,56.328061
FKB,Karlsruhe Baden-Baden Airport,Rheinmünster,DE,48.7794,8.0805
FKI,Bangoka International Airport,Kisangani,CD,0.481639,25.337999
FKQ,Fakfak Airport,Fakfak,ID,-2.920508,132.267011
FKS,Fukushima Airport,Sukagawa,JP,37.22740173339844,140.43099975585938
FLA,Gustavo Artunduaga Paredes Airport,Florencia,CO,1.58919,-75.5644
FLG,Flagstaff Pulliam Airport,Flagstaff,US,35.139757,-111.669826
FLL,Fort Lauderdale Hollywood International Airport,Fort Lauderdale,US,26.072599,-80.152702
FLN,Hercílio Luz International Airport,Florianópolis,BR,-27.670279,-48.552502
FLO,Florence Regional Airport,Florence,US,34.18539810180664,-79.7238998413086
FLR,"Florence Airport, Peretola",Firenze (FI),IT,43.808558,11.202822
FLS,Flinders Island Airport,Whitemark,AU,-40.091702,147.992996
FLW,Flores Airport,Santa Cruz das Flores,PT,39.455299377441406,-31.13139915466309
FLZ,Dr. Ferdinand Lumban Tobing Airport,Sibolga (Pinangsori),ID,1.557127,98.887145
FMA,Formosa National Airport,Formosa,AR,-26.2127,-58.2281
FMI,Kalemie Airport,Kalemie,CD,-5.87556,29.25
FMM,Memmingen Allgau Airport,Memmingen,DE,47.988092,10.238248
FMO,Münster Osnabrück Airport,Greven,DE,52.133816,7.688482
FMT,Faresmaathoda Airport,Faresmaathodaa,MV,0.192647,73.196755
FNA,Lungi International Airport,Freetown (Lungi-Town),SL,8.61644,-13.1955
FNC,Cristiano Ronaldo International Airport,Funchal,PT,32.697812,-16.774613
FND,Funadhoo Airport,Funadhoo,MV,6.162443,73.28752
FNI,Nîmes-Arles-Camargue Airport,Nîmes/Garons,FR,43.757401,4.41635
FNJ,Pyongyang Sunan International Airport,Pyongyang,KP,39.224098,125.669998
FNT,Bishop International Airport,Flint,US,42.969294,-83.743355
FOA,Foula Airfield,Foula,GB,60.121725,-2.053202
FOC,Fuzhou Changle International Airport,Fuzhou (Changle),CN,25.929254,119.672524
FOD,Fort Dodge Regional Airport,Fort Dodge,US,42.552624,-94.191237
FOG,Foggia Gino Lisa Airport,Foggia (FG),IT,41.433596,15.534566
FON,La Fortuna Arenal Airport,La Fortuna,CR,10.469311,-84.579073
FOR,Pinto Martins International Airport,Fortaleza,BR,-3.775833,-38.532222
FPO,Grand Bahama International Airport,Freeport,BS,26.557996,-78.695583
FRA,Frankfurt Main Airport,Frankfurt am Main,DE,50.026706,8.55835
FRD,Friday Harbor Airport,Friday Harbor,US,48.523654,-123.024645
FRE,Fera/Maringe Airport,Fera Island,SB,-8.1075,159.576996
FRL,Forlì-Luigi Ridolfi International Airport,Forlì (FC),IT,44.194801,12.0701
FRO,Florø Airport,Florø,NO,61.583599090576,5.0247201919556
FRS,Mundo Maya International Airport,San Benito,GT,16.912391,-89.864792
FRW,Phillip Gaonwe Matante International Airport,Francistown,BW,-21.159183,27.468826
FSC,Figari Sud-Corse Airport,Figari,FR,41.50185,9.097092
FSD,Sioux Falls Regional Airport,Sioux Falls,US,43.585463,-96.741152
FSH,Syekh Hamzah Fansyuri Airport,Singkil,ID,2.269614,97.967863
FSM,Fort Smith Regional Airport,Fort Smith,US,35.336601,-94.367401
FSP,Saint-Pierre Pointe-Blanche Airport,Saint-Pierre,PM,46.762651,-56.17499
FSZ,Mount Fuji Shizuoka Airport,Makinohara / Shimada,JP,34.795022,138.190976
FTA,Futuna Airport,Futuna Island,VU,-19.5163993835,170.231994629
FTE,El Calafate - Commander Armando Tola International Airport,El Calafate,AR,-50.281997,-72.053949
FTI,Fitiuta Airport,Fitiuta Village,AS,-14.216131,-169.423771
FTU,Tôlanaro Airport,Tôlanaro,MG,-25.038099,46.9561
FTW,Fort Worth Meacham International Airport,Fort Worth,US,32.819919,-97.360818
FUE,Fuerteventura Airport,El Matorral,ES,28.4527,-13.8638
FUG,Fuyang Xiguan Airport,"Yingzhou, Fuyang",CN,32.882157,115.734364
FUJ,Fukue Airport,Goto,JP,32.666302,128.832993
FUK,Fukuoka Airport,Fukuoka,JP,33.585899353027344,130.4510040283203
FUN,Funafuti International Airport,Funafuti,TV,-8.523885,179.196976
FUO,Foshan Shadi Airport,Foshan (Nanhai),CN,23.0825,113.070833
FUT,Pointe Vele Airport,Futuna Island,WF,-14.311565,-178.066492
FWA,Fort Wayne International Airport,Fort Wayne,US,40.978896,-85.194465
FYJ,Fuyuan Dongji Airport,Fuyuan,CN,48.197219,134.36298
FYN,Fuyun Koktokay Airport,Fuyun,CN,46.804169,89.512006
FYU,Fort Yukon Airport,Fort Yukon,US,66.571651,-145.249987
GAE,Gabès Matmata International Airport,Gabès,TN,33.733691,9.91941
GAF,Gafsa Ksar International Airport,Gafsa,TN,34.422000885009766,8.822500228881836
GAJ,Yamagata Airport,Higashine,JP,38.4119,140.371002
GAL,Edward G. Pitka Sr Airport,Galena,US,64.736198,-156.936997
GAM,Gambell Airport,Gambell,US,63.767694,-171.733303
GAN,Gan International Airport,Gan,MV,-0.692975,73.152627
GAQ,Gao International Airport,Gao,ML,16.248466,-0.005389
GAU,Lokpriya Gopinath Bordoloi International Airport,Guwahati,IN,26.106654,91.585226
GAX,Gamba Airport,Gamba,GA,-2.785278,10.047222
GAY,Gaya Airport,Gaya,IN,24.744301,84.951202
GBB,Gabala International Airport,Gabala,AZ,40.808617,47.725389
GBE,Sir Seretse Khama International Airport,Gaborone,BW,-24.555201,25.9182
GBI,Kalaburagi Airport,Kalaburagi,IN,17.308154,76.965246
GBJ,Marie-Galante Airport,Grand-Bourg,GP,15.868925,-61.270087
GBZ,Great Barrier Aerodrome,Claris,NZ,-36.241402,175.472
GCC,Northeast Wyoming Regional Airport,Gillette,US,44.3489,-105.539001
GCH,Gachsaran Airport,Gachsaran,IR,30.333869,50.833796
GCI,Guernsey Airport,Saint Peter Port,GG,49.435001,-2.60197
GCK,Garden City Regional Airport,Garden City,US,37.9275016785,-100.723999023
GCM,Owen Roberts International Airport,George Town,KY,19.292801,-81.357697
GCN,Grand Canyon National Park Airport,Grand Canyon - Tusayan,US,35.9524,-112.147003
GDB,Gondia Airport,Gondia,IN,21.526817,80.290347
GDE,Gode Airport,Gode,ET,5.93513011932,43.5786018372
GDL,Guadalajara International Airport,Guadalajara,MX,20.523342,-103.310108
GDN,Gdańsk Lech Wałęsa Airport,Gdańsk,PL,54.377602,18.4662
GDQ,Gondar Airport,Azezo,ET,12.5199,37.433998
GDT,JAGS McCartney International Airport,Cockburn Town,TC,21.4445,-71.142303
GDV,Dawson Community Airport,Glendive,US,47.137658,-104.80691
GDX,Sokol Airport,Magadan,RU,59.9109992980957,150.72000122070312
GDZ,Gelendzhik Airport,Gelendzhik,RU,44.5820926295,38.0124807358
GEA,Nouméa Magenta Airport,Nouméa,NC,-22.25812,166.472783
GEC,Lefkoniko Airport / Geçitkale Air Base,Lefkoniko (Geçitkale),CY,35.23591,33.720088
GEG,Spokane International Airport,Spokane,US,47.6199,-117.533997
GEL,Santo Ângelo Airport,Santo Ângelo,BR,-28.282503,-54.169623
GEO,Cheddi Jagan International Airport,Georgetown,GY,6.49855,-58.254101
GER,Rafael Cabrera Airport,Nueva Gerona,CU,21.834699630737305,-82.78379821777344
GES,General Santos International Airport,General Santos,PH,6.057208,125.096243
GET,Geraldton Airport,Moonyoonooka,AU,-28.796101,114.707001
GEV,Gällivare Airport,Gällivare,SE,67.13240051269531,20.814599990844727
GFF,Griffith Airport,Griffith,AU,-34.2508010864,146.067001343
GFK,Grand Forks International Airport,Grand Forks,US,47.949299,-97.176102
GGF,Almeirim Airport,Almeirim,BR,-1.479524,-52.578214
GGG,East Texas Regional Airport,Longview,US,32.38399887084961,-94.71150207519533
GGJ,Guaíra Airport,Guaíra,BR,-24.0811,-54.1917
GGR,Garowe Airport,Garowe,SO,8.458474,48.568136
GGS,Gobernador Gregores Airport,Gobernador Gregores,AR,-48.7831,-70.150002
GGT,Exuma International Airport,Moss Town,BS,23.562599,-75.877998
GGW,Glasgow Valley County Airport Wokal Field,Glasgow,US,48.212502,-106.614998
GHA,Noumérat - Moufdi Zakaria Airport,El Atteuf,DZ,32.384102,3.79411
GHB,Governor's Harbour Airport,Governor's Harbour,BS,25.2847,-76.331001
GHT,Ghat Airport,Ghat,LY,25.1455993652,10.1426000595
GHV,Brașov-Ghimbav International Airport,Brașov (Ghimbav),RO,45.70558,25.522871
GIB,Gibraltar Airport,Gibraltar,GI,36.151679,-5.34978
GIC,Boigu Island Airport,Boigu Island,AU,-9.23278,142.218002
GID,Gitega Airport,Gitega,BI,-3.417209,29.911308
GIG,Rio Galeão – Tom Jobim International Airport,Rio De Janeiro,BR,-22.809999,-43.250557
GIL,Gilgit Airport,Gilgit,PK,35.918800354003906,74.33360290527344
GIS,Gisborne Airport,Gisborne,NZ,-38.6633,177.977997
GIZ,Jizan Regional Airport / King Abdullah bin Abdulaziz Airport,Jizan,SA,16.9011,42.5858
GJA,La Laguna Airport,Guanaja,HN,16.4454,-85.906601
GJL,Jijel Ferhat Abbas Airport,Tahir,DZ,36.794125,5.873652
GJT,Grand Junction Regional Airport,Grand Junction,US,39.126663,-108.529387
GKA,Goroka Airport,Goronka,PG,-6.081689834590001,145.391998291
GKK,Kooddoo Airport,Huvadhu Atoll,MV,0.7324,73.4336
GKN,Gulkana Airport,Gulkana,US,62.155859,-145.454662
GLA,Glasgow Airport,Glasgow,GB,55.871899,-4.43306
GLF,Golfito Airport,Golfito,CR,8.65401,-83.182198
GLH,Mid Delta Regional Airport,Greenville,US,33.482899,-90.985603
GLK,Galcaio Airport,Galcaio,SO,6.78082990646,47.45470047
GLT,Gladstone Airport,Gladstone,AU,-23.869763,151.225439
GLV,Golovin Airport,Golovin,US,64.550499,-163.007004
GMA,Gemena Airport,Gemena,CD,3.23537,19.771299
GMB,Gambela Airport,Gambela,ET,8.12876,34.563099
GME,Gomel Airport,Gomel,BY,52.527000427246094,31.016700744628903
GMI,Gasmata Island Airport,Gasmata Island,PG,-6.27111005783,150.330993652
GMO,Gombe Lawanti International Airport,Gombe,NG,10.298889,10.9
GMP,Gimpo International Airport,Seoul,KR,37.5583,126.791
GMQ,Golog Maqên Airport,Golog (Maqên),CN,34.418066,100.301144
GMR,Totegegie Airport,,PF,-23.07990074157715,-134.88999938964844
GMZ,La Gomera Airport,"Alajero, La Gomera Island",ES,28.0296,-17.2146
GNB,Grenoble Alpes Isère Airport,Grenoble,FR,45.3629,5.32937
GND,Maurice Bishop International Airport,Saint George's,GD,12.003996,-61.785302
GNJ,Ganja International Airport,Ganja,AZ,40.738692,46.320383
GNS,Binaka Airport,Gunungsitoli,ID,1.16628,97.704327
GNU,Goodnews Airport,Goodnews,US,59.117561,-161.575241
GNV,Gainesville Regional Airport,Gainesville,US,29.6900997162,-82.2717971802
GNY,Şanlıurfa GAP Airport,Şanlıurfa,TR,37.445663,38.895592
GOA,Genoa Cristoforo Colombo Airport,Genova (GE),IT,44.412039,8.840732
GOH,Nuuk International Airport,Nuuk,GL,64.191066,-51.67914
GOI,Goa Dabolim International Airport,Vasco da Gama,IN,15.380062,73.833328
GOJ,Nizhny Novgorod / Strigino International Airport,Nizhny Novgorod,RU,56.227351,43.785152
GOM,Goma International Airport,Goma,CD,-1.666758,29.238037
GOP,Gorakhpur Airport,Gorakhpur,IN,26.739700317399997,83.4496994019
GOQ,Golmud Airport,Golmud,CN,36.4006,94.786102
GOT,Göteborg Landvetter Airport,Göteborg,SE,57.6628,12.2798
GOU,Garoua International Airport,Garoua,CM,9.334785,13.372129
GOV,Gove Airport,Nhulunbuy,AU,-12.269399642899998,136.817993164
GOX,Manohar International Airport,Mopa,IN,15.744257,73.860625
GOY,Tura Mountain Airport,Tura,RU,64.333511,100.432892
GPA,Patras Araxos Agamemnon Airport,Patras,GR,38.1511,21.4256
GPB,Tancredo Thomas de Faria Airport,Guarapuava,BR,-25.388327,-51.52349
GPI,Guapi Airport,Guapi,CO,2.57013,-77.897969
GPS,Seymour Galapagos Ecological Airport,Isla Baltra,EC,-0.453758,-90.2659
GPT,Gulfport Biloxi International Airport,Gulfport,US,30.405582,-89.069836
GRB,Austin Straubel International Airport,Green Bay,US,44.483459,-88.130805
GRI,Central Nebraska Regional Airport,Grand Island,US,40.967498779296875,-98.30960083007812
GRJ,George Airport,George,ZA,-34.0056,22.378902
GRK,Killeen Regional Airport / Robert Gray Army Airfield,Fort Cavazos,US,31.0672,-97.828903
GRO,Girona-Costa Brava Airport,Girona,ES,41.904639,2.761774
GRQ,Groningen Airport Eelde,Groningen,NL,53.119107,6.577652
GRR,Gerald R. Ford International Airport,Grand Rapids,US,42.880798,-85.522797
GRU,São Paulo/Guarulhos–Governor André Franco Montoro International Airport,São Paulo,BR,-23.431274,-46.469954
GRV,Akhmat Kadyrov Grozny International Airport,Grozny,RU,43.388106,45.699772
GRW,Graciosa Airport,Santa Cruz da Graciosa,PT,39.09220123291016,-28.029800415039062
GRX,F.G.L. Airport Granada-Jaén Airport,Granada,ES,37.188702,-3.77736
GRY,Grímsey Airport,Grímsey/Sandvík,IS,66.5458,-18.0173
GRZ,Graz Airport,Feldkirchen bei Graz,AT,46.9911,15.4396
GSM,Qeshm International Airport,Qeshm(Dayrestan),IR,26.754639,55.902353
GSO,Piedmont Triad International Airport,Greensboro,US,36.09937,-79.937262
GSP,Greenville-Spartanburg International Airport,Greenville/Greer/Spartanburg,US,34.895699,-82.218903
GST,Gustavus Airport,Gustavus,US,58.4253006,-135.7070007
GSV,Gagarin International Airport,Saratov,RU,51.712778,46.171111
GTA,Gatokae Aerodrome,Gatokae,SB,-8.738358,158.202836
GTE,Groote Eylandt Airport,Groote Eylandt,AU,-13.972405,136.458553
GTF,Great Falls International Airport,Great Falls,US,47.481998,-111.371002
GTO,Jalaluddin Airport,Gorontalo-Celebes Island,ID,0.637119,122.849998
GTR,Golden Triangle Regional Airport,Columbus/W Point/Starkville,US,33.450298,-88.5914
GUA,La Aurora International Airport,Guatemala City,GT,14.582896,-90.527515
GUB,Guerrero Negro Airport,San Quintín,MX,28.0261,-114.024002
GUC,Gunnison Crested Butte Regional Airport,Gunnison,US,38.534672,-106.934566
GUM,Antonio B. Won Pat International Airport,Hagåtña,GU,13.485,144.797282
GUP,Gallup Municipal Airport,Gallup,US,35.511653,-108.788166
GUR,Gurney Airport,Gurney,PG,-10.3114995956,150.333999634
GUW,Atyrau International Airport,Atyrau,KZ,47.121318,51.820343
GUZ,Guarapari Airport,Guarapari,BR,-20.6465,-40.491901
GVA,Geneva Cointrin International Airport,Geneva,CH,46.238098,6.10895
GVR,Coronel Altino Machado Airport,Governador Valadares,BR,-18.895882,-41.982869
GWD,New Gwadar International Airport,Gurandani,PK,25.296733,62.498822
GWL,Gwalior Airport,Gwalior,IN,26.29330062866211,78.22779846191406
GWT,Westerland Sylt Airport,Sylt,DE,54.9132,8.34047
GXF,Seiyun Hadhramaut International Airport,Seiyun,YE,15.965887,48.788146
GXG,Negage Airport,Negage,AO,-7.754509925842285,15.287699699401855
GXH,Gannan Xiahe Airport,Gannan (Xiahe),CN,34.819014,102.622261
GYA,Guayaramerín Airport,Guayaramerín,BO,-10.88856,-65.380955
GYD,Heydar Aliyev International Airport,Baku,AZ,40.467498779296875,50.04669952392578
GYE,José Joaquín de Olmedo International Airport,Guayaquil,EC,-2.15742,-79.883598
GYM,General José María Yáñez International Airport,Guaymas,MX,27.9689998626709,-110.9250030517578
GYN,Santa Genoveva International Airport,Goiânia,BR,-16.632,-49.220699
GYS,Guangyuan Panlong Airport,Guangyuan (Lizhou),CN,32.390254,105.694571
GYU,Guyuan Liupanshan Airport,Guyuan (Yuanzhou),CN,36.078889,106.216944
GYY,Gary Chicago International Airport,Gary,US,41.617087,-87.413206
GYZ,Gruyere Airport,Cosmo Newbery,AU,-28.034548,123.81506
GZG,Garze Gesar Airport,Garzê (Garzê),CN,31.7575,99.554167
GZO,Nusatupe Airport,Gizo,SB,-8.09778022766,156.863998413
GZP,Gazipaşa-Alanya Airport,Gazipaşa,TR,36.299217,32.300598
GZT,Gaziantep Oğuzeli International Airport,Gaziantep,TR,36.947201,37.478699
HAA,Hasvik Airport,Hasvik,NO,70.486702,22.1397
HAC,Hachijojima Airport,Hachijojima,JP,33.114843,139.785645
HAD,Halmstad Airport,Halmstad,SE,56.69110107421875,12.820199966430664
HAH,Prince Said Ibrahim International Airport,Moroni,KM,-11.5337,43.2719
HAJ,Hannover Airport,Hannover,DE,52.461102,9.68508
HAK,Haikou Meilan International Airport,Haikou (Meilan),CN,19.9349,110.459
HAL,Halali Airport,Halali,,-19.0285,16.4585
HAM,Hamburg Helmut Schmidt Airport,Hamburg,DE,53.630402,9.98823
HAN,Noi Bai International Airport,Hanoi (Soc Son),VN,21.221201,105.806999
HAQ,Hanimaadhoo International Airport,Haa Dhaalu Atoll,MV,6.743235,73.167072
HAS,Ha'il Airport,Ha'il,SA,27.437901,41.686298
HAU,"Haugesund Airport, Karmøy",Karmøy,NO,59.345299,5.20836
HAV,José Martí International Airport,Havana,CU,22.989200592041016,-82.40910339355469
HBA,Hobart International Airport,Hobart (Cambridge),AU,-42.837032,147.513022
HBE,Alexandria International Airport,Alexandria,EG,30.93249,29.696437
HBQ,Haibei Qilian Airport,Haibei (Qilian),CN,38.008068,100.645065
HBX,Hubballi Airport,Hubballi,IN,15.361084,75.082096
HCJ,Hechi Jinchengjiang Airport,Hechi (Jinchengjiang),CN,24.804344,107.710819
HCR,Holy Cross Airport,Holy Cross,US,62.18830108642578,-159.77499389648438
HCZ,Chenzhou Beihu Airport,Chenzhou,CN,25.753419,112.845404
HDD,Hyderabad Airport,Hyderabad,PK,25.3181,68.366096
HDF,Heringsdorf Airport,Zirchow,DE,53.8787,14.1523
HDG,Handan Airport,Handan,CN,36.524824,114.424126
HDK,Kulhudhuffushi Airport,Kulhudhuffushi,MV,6.630762,73.067815
HDM,Hamadan Airport,Hamadan,IR,34.869202,48.552502
HDN,Yampa Valley Airport,Hayden,US,40.481201,-107.218002
HDO,Hindon Airport / Hindon Air Force Station,Ghaziabad,IN,28.707701,77.358902
HDS,Eastgate Airport / Air Force Base Hoedspruit,Hoedspruit,ZA,-24.361864,31.052921
HDY,Hat Yai International Airport,Hat Yai,TH,6.93321,100.392998
HEA,Herat - Khwaja Abdullah Ansari International Airport,Guzara,AF,34.209999,62.228298
HEH,Heho Airport,Kalaw Township,MM,20.74714,96.792029
HEI,Heide-Büsum Airport,Oesterdeichstrich,DE,54.153332,8.901667
HEK,Heihe Aihui Airport,Heihe,CN,50.171621,127.308884
HEL,Helsinki Vantaa Airport,Helsinki (Vantaa),FI,60.318363,24.963341
HER,Heraklion International Nikos Kazantzakis Airport,Heraklion,GR,35.339699,25.1803
HET,Hohhot Baita International Airport,Hohhot,CN,40.849658,111.824598
HFA,Uri Michaeli Haifa International Airport,Haifa,IL,32.810219,35.043719
HFE,Hefei Xinqiao International Airport,Hefei,CN,31.98779,116.9769
HFN,Hornafjörður Airport,Höfn,IS,64.295601,-15.2272
HFS,Hagfors Airport,Råda,SE,60.0201,13.5789
HFT,Hammerfest Airport,Hammerfest,NO,70.679703,23.6686
HGA,Egal International Airport,Hargeisa,SO,9.514082,44.083469
HGD,Hughenden Airport,Hughenden,AU,-20.815001,144.225006
HGH,Hangzhou Xiaoshan International Airport,Hangzhou,CN,30.23609,120.428865
HGI,Itanagar Donyi Polo Hollongi Airport,Hollongi,IN,26.96683,93.638792
HGL,Helgoland-Düne Airport,Helgoland,DE,54.18528,7.915833
HGN,Mae Hong Son Airport,Mae Hong Son,TH,19.3013,97.9758
HGO,Korhogo Airport,Korhogo,CI,9.38718,-5.55666
HGR,Hagerstown Regional Richard A Henson Field,Hagerstown,US,39.708771,-77.728014
HGU,Mount Hagen Kagamuga Airport,Mount Hagen,PG,-5.828212,144.299412
HHH,Hilton Head Airport,Hilton Head Island,US,32.2244,-80.697502
HHN,Frankfurt-Hahn Airport,Frankfurt am Main (Lautzenhausen),DE,49.946353,7.261734
HHQ,Hua Hin Airport,Hua Hin,TH,12.6361999512,99.951499939
HHR,Jack Northrop Field Hawthorne Municipal Airport,Hawthorne,US,33.922798,-118.334999
HHZ,Hikueru Airport,Hikueru,PF,-17.548297,-142.612037
HIA,Huai'an Lianshui International Airport,Huai'an,CN,33.790833,119.125
HIB,Range Regional Airport,Hibbing,US,47.384831,-92.836905
HID,Horn Island Airport,Horn,AU,-10.585636,142.29277
HII,Lake Havasu City Airport,Lake Havasu City,US,34.570506,-114.357745
HIJ,Hiroshima Airport,Hiroshima,JP,34.4361,132.919006
HIL,Shilavo Airport,Shilavo,ET,6.077545,44.763736
HIN,Sacheon Airport / Sacheon Air Base,Sacheon,KR,35.088591,128.071747
HIR,Honiara International Airport,Honiara,SB,-9.428,160.054993
HJB,Hejing Bayinbuluke Airport,Hejing,CN,42.976395,83.995543
HJJ,Huaihua Zhijiang Airport,Huaihua,CN,27.443087,109.704666
HJR,Khajuraho Airport,Khajuraho,IN,24.8172,79.918602
HKD,Hakodate Airport,Hakodate,JP,41.77,140.822006
HKG,Hong Kong International Airport,Hong Kong,HK,22.31184,113.914862
HKK,Hokitika Airfield,,NZ,-42.713600158691406,170.98500061035156
HKN,Hoskins Airport,Kimbe,PG,-5.463846,150.407327
HKT,Phuket International Airport,Phuket,TH,8.113257,98.3174
HLA,Lanseria International Airport,Johannesburg,ZA,-25.938964,27.926642
HLD,Hulunbuir Hailar Airport,Hailar,CN,49.208616,119.822301
HLE,Saint Helena International Airport,Jamestown,SH,-15.958898,-5.646066
HLH,Ulanhot Yilelite Airport,Ulanhot,CN,46.195333,122.008333
HLN,Helena Regional Airport,Helena,US,46.6068,-111.983002
HLP,Halim Perdanakusuma International Airport,Jakarta,ID,-6.267221,106.891733
HLZ,Hamilton International Airport,Hamilton,NZ,-37.866961,175.331952
HMA,Khanty Mansiysk Airport,Khanty-Mansiysk,RU,61.0285,69.086098
HMB,Sohag International Airport,Suhaj,EG,26.342515,31.743017
HME,Hassi Messaoud-Oued Irara Krim Belkacem Airport,Hassi Messaoud,DZ,31.673,6.14044
HMI,Hami Airport,Hami,CN,42.8414,93.669197
HMO,General Ignacio L. Pesqueira International Airport,Hermosillo,MX,29.092811,-111.053015
HMS,Haji Muhammad Sidik Airport,Muara Teweh,ID,-1.02581,114.92881
HMV,Hemavan Airport,Hemavan,SE,65.806099,15.0828
HNA,Iwate Hanamaki Airport,Hanamaki,JP,39.4286,141.134995
HND,Tokyo Haneda International Airport,Tokyo,JP,35.549678,139.786958
HNH,Hoonah Airport,Hoonah,US,58.0961,-135.410111
HNL,Daniel K. Inouye International Airport,"Honolulu, Oahu",US,21.318387,-157.92567
HNM,Hana Airport,Hana,US,20.795601,-156.014008
HNS,Haines Airport,Haines,US,59.243921,-135.523925
HNY,Hengyang Nanyue Airport,Hengyang,CN,26.72208,112.617958
HOB,Lea County Regional Airport,Hobbs,US,32.6875,-103.217003
HOF,Al-Ahsa International Airport,Hofuf,SA,25.285299,49.485199
HOG,Frank Pais International Airport,Holguin,CU,20.785148,-76.315526
HOI,Hao Airport,Otepa,PF,-18.0748,-140.945999
HOK,Hooker Creek Airport,Lajamanu,AU,-18.3367004395,130.638000488
HOM,Homer Airport,Homer,US,59.644456,-151.479235
HOR,Horta Airport,Horta,PT,38.519901275634766,-28.715900421142575
HOT,Memorial Field Airport,Hot Springs,US,34.4788,-93.096262
HOU,William P. Hobby Airport,Houston,US,29.645336,-95.276812
HOV,"Ørsta-Volda Airport, Hovden",Ørsta,NO,62.180000305176,6.0741000175476
HPA,Lifuka Island Airport,Lifuka,TO,-19.777000427246097,-174.34100341796875
HPB,Hooper Bay Airport,Hooper Bay,US,61.523899,-166.147003
HPG,Shennongjia Hongping Airport,Shennongjia (Hongping),CN,31.626,110.34
HPH,Cat Bi International Airport,Haiphong (Hai An),VN,20.817428,106.724315
HPN,Westchester County Airport,White Plains,US,41.06700134277344,-73.70760345458984
HQL,Tashikuergan Hongqilafu Airport,Tashikuergan,CN,37.661333,75.288877
HQQ,Anyang Hongqiqu Airport,Anyang,CN,35.870833,114.461944
HRB,Harbin Taiping International Airport,Harbin,CN,45.623402,126.25
HRE,Robert Gabriel Mugabe International Airport,Harare,ZW,-17.931801,31.0928
HRF,Hoarafushi Airport,,MV,6.96967,72.896287
HRG,Hurghada International Airport,Hurghada,EG,27.176776,33.796692
HRH,Aligarh Airport,Aligarh,IN,27.861437,78.145404
HRI,Mattala Rajapaksa International Airport,Mattala,LK,6.283878,81.124163
HRL,Valley International Airport,Harlingen,US,26.228500366210938,-97.65440368652344
HRO,Boone County Airport,Harrison,US,36.26150131225586,-93.15470123291016
HSA,Hazrat Sultan International Airport,Turkıstan,KZ,43.311742,68.550185
HSC,Shaoguan Danxia Airport,Shaoguan,CN,24.9786,113.420998
HSG,Kyushu Saga International Airport,Saga,JP,33.1497,130.302002
HSL,Huslia Airport,Huslia,US,65.697899,-156.350998
HSN,Zhoushan Putuoshan Airport,Zhoushan,CN,29.9342,122.362
HSS,Maharaja Agrasen International Airport,Hisar,IN,29.186065,75.74142
HSV,Huntsville International Airport,Huntsville,US,34.636244,-86.774378
HTA,Chita-Kadala International Airport,Chita,RU,52.024841,113.305839
HTG,Khatanga Airport,Khatanga,RU,71.97810363769531,102.49099731445312
HTI,Hamilton Island Airport,Hamilton Island,AU,-20.3581008911,148.95199585
HTN,Hotan Airport,Hotan,CN,37.03850173950195,79.86489868164062
HTS,Tri-State Airport / Milton J. Ferguson Field,Huntington,US,38.366699,-82.557999
HTT,Huatugou Airport,Mengnai,CN,38.201645,90.837843
HTY,Hatay Airport,Antakya,TR,36.362778,36.282223
HUG,Huehuetenango Airport,Huehuetenango,GT,15.316667,-91.505556
HUH,Huahine-Fare Airport,Fare,PF,-16.687084,-151.021593
HUI,Phu Bai International Airport,Huế,VN,16.400628,107.703094
HUN,Hualien Chiashan Airport,Hualien City,TW,24.023163,121.617991
HUO,Holingol Huolinhe Airport,Holingol,CN,45.487222,119.407222
HUS,Hughes Airport,Hughes,US,66.04109955,-154.2630005
HUU,Alferez Fap David Figueroa Fernandini Airport,Huánuco,PE,-9.878809928894045,-76.20480346679688
HUX,Bahías de Huatulco International Airport,Huatulco,MX,15.774909,-96.260319
HUY,Humberside Airport,"Grimsby, Lincolnshire",GB,53.576152,-0.34954
HUZ,Huizhou Pingtan Airport,Huizhou (Pingtan),CN,23.049999,114.599998
HVB,Hervey Bay Airport,Hervey Bay,AU,-25.320127,152.880662
HVD,Khovd Airport,Khovd,MN,47.954102,91.628197
HVG,"Honningsvåg Airport, Valan",Honningsvåg,NO,71.009697,25.983601
HVN,Tweed New Haven Airport,New Haven,US,41.262869,-72.887694
HVR,Havre City County Airport,Havre,US,48.541387,-109.762859
HXD,Delingha Airport,Delingha,CN,37.125286,97.268658
HYA,Cape Cod Gateway Airport,Hyannis,US,41.6693,-70.280403
HYD,Rajiv Gandhi International Airport,Hyderabad,IN,17.231318,78.429855
HYN,Taizhou Luqiao Airport,Taizhou (Luqiao),CN,28.562201,121.429001
HYS,Hays Regional Airport,Hays,US,38.844521,-99.273148
HZA,Heze Mudan Airport,Heze (Dingtao),CN,35.212972,115.736748
HZG,Hanzhong Chenggu Airport,Hanzhong (Chenggu),CN,33.133527,107.203817
HZH,Liping Airport,Liping,CN,26.32217,109.1499
IAA,Igarka Airport,Igarka,RU,67.437202,86.621902
IAD,Washington Dulles International Airport,Dulles,US,38.9445,-77.455803
IAG,Niagara Falls International Airport,Niagara Falls,US,43.1073,-78.946198
IAH,George Bush Intercontinental Airport,Houston,US,29.9844,-95.3414
IAM,Zarzaitine - In Aménas Airport,In Aménas,DZ,28.0515,9.64291
IAN,Bob Baker Memorial Airport,Kiana,US,66.976128,-160.439014
IAO,Siargao Airport,Del Carmen,PH,9.8591,126.014
IAR,Golden Ring Yaroslavl International Airport,Tunoshna,RU,57.560699,40.157398
IAS,Iaşi International Airport,Iaşi,RO,47.179633,27.621431
IBA,Ibadan Airport,Ibadan,NG,7.362460136413574,3.97832989692688
IBB,General Villamil Airport,Puerto Villamil,EC,-0.942628,-90.953003
IBE,Perales Airport,Ibagué,CO,4.42161,-75.1333
IBR,Ibaraki International Airport,Omitama,JP,36.181456,140.414434
IBZ,Ibiza Airport,Ibiza (Eivissa),ES,38.872898,1.37312
ICC,Andrés Miguel Salazar Marcano Airport,Isla de Coche,VE,10.794432,-63.98159
ICI,Cicia Airport,Cicia,FJ,-17.7432994843,-179.341995239
ICN,Incheon International Airport,Seoul,KR,37.469101,126.450996
ICT,Wichita Dwight D. Eisenhower National Airport,Wichita,US,37.650314,-97.428583
IDA,Idaho Falls Regional Airport,Idaho Falls,US,43.514599,-112.070999
IDR,Devi Ahilya Bai Holkar International Airport,Indore,IN,22.721404,75.80051
IDY,Île d'Yeu Airport,Île d'Yeu,FR,46.717641,-2.392544
IEG,Zielona Góra-Babimost Airport,Nowe Kramsko,PL,52.1385,15.7986
IEV,Ihor Sikorsky Kyiv International Airport (Zhuliany),Kyiv,UA,50.40194,30.45194
IFJ,Ísafjörður Airport,Ísafjörður,IS,66.058098,-23.1353
IFN,Isfahan Shahid Beheshti International Airport,Isfahan,IR,32.755142,51.883877
IFO,Ivano-Frankivsk International Airport,Ivano-Frankivsk,UA,48.88420104980469,24.686100006103516
IGA,Inagua Airport,Matthew Town,BS,20.975,-73.666901
IGD,Iğdır Airport,Iğdır,TR,39.976627,43.876648
IGG,Igiugig Airport,Igiugig,US,59.324001,-155.901993
IGR,Cataratas Del Iguazú International Airport,Puerto Iguazu,AR,-25.737301,-54.4734
IGT,Magas Airport,Sunzha,RU,43.323268,45.012568
IGU,Cataratas International Airport,Foz do Iguaçu,BR,-25.594167,-54.489444
IIA,Inishmaan Aerodrome,Inis Meáin,IE,53.092999,-9.56806
IJK,Izhevsk Airport,Izhevsk,RU,56.834524,53.462172
IKA,Imam Khomeini International Airport,Tehran,IR,35.416099548339844,51.152198791503906
IKG,Karakol Airport,Karakol,KG,42.508099,78.407799
IKI,Iki Airport,Iki,JP,33.7490005493,129.785003662
IKO,Nikolski Air Station,Nikolski,US,52.941552,-168.849478
IKS,Tiksi Airport,Tiksi,RU,71.697700500488,128.90299987793
IKT,Irkutsk International Airport,Irkutsk,RU,52.266707,104.395563
IKU,Issyk-Kul International Airport,Tamchy,KG,42.585584,76.701181
ILD,Lleida-Alguaire Airport,Lleida,ES,41.728185,0.535023
ILF,Ilford Airport,Ilford,CA,56.051622,-95.61882
ILG,Wilmington Airport,Wilmington,US,39.678699,-75.606499
ILI,Iliamna Airport,Iliamna,US,59.754398,-154.910996
ILM,Wilmington International Airport,Wilmington,US,34.271719,-77.904644
ILO,Iloilo International Airport,Cabatuan,PH,10.833017,122.493358
ILP,Île des Pins Airport,Île des Pins,NC,-22.58889961242676,167.45599365234375
ILQ,General Jorge Fernandez Maldon Airport,Ilo,PE,-17.695,-71.344002
ILR,General Tunde Idiagbon International Airport,Ilorin/Ogbomosho,NG,8.44021,4.49392
ILS,Ilopango International Airport,San Salvador,SV,13.6995,-89.119904
ILY,Islay Airport,"Isle of Islay, Argyll and Bute",GB,55.682708,-6.257525
IMF,Bir Tikendrajit International Airport,Imphal,IN,24.76,93.896698
IMK,Simikot Airport,Simikot,NP,29.9711,81.818901
IMP,Prefeito Renato Moreira Airport,Imperatriz,BR,-5.53129,-47.459999
IMT,Ford Airport,Kingsford,US,45.81911,-88.114557
INB,Independence Airport,Independence,BZ,16.53456,-88.441615
INC,Yinchuan Hedong International Airport,Yinchuan,CN,38.322758,106.393214
IND,Indianapolis International Airport,Indianapolis,US,39.7173,-86.294403
INH,Inhambane Airport,Inhambane,MZ,-23.8764,35.408501
INI,Niš Constantine the Great Airport,Niš,RS,43.336538,21.856242
INL,Falls International Airport,International Falls,US,48.566200256347656,-93.4030990600586
INN,Innsbruck Airport,Innsbruck,AT,47.260201,11.344
INO,Inongo Airport,Inongo,CD,-1.94722,18.285801
INQ,Inisheer Aerodrome,Inis Oírr,IE,53.064701,-9.5109
INU,Nauru International Airport,Yaren,NR,-0.547893,166.919525
INV,Inverness Airport,Inverness,GB,57.5425,-4.0475
INZ,In Salah Airport,In Salah,DZ,27.250999,2.51202
IOA,Ioannina King Pyrrhus National Airport,Ioannina,GR,39.6964,20.8225
IOM,Isle of Man Airport,Castletown,IM,54.083081,-4.623871
IOR,Inishmore Aerodrome,Inis Mór,IE,53.1067008972168,-9.653610229492188
IOS,Bahia - Jorge Amado Airport,Ilhéus,BR,-14.815929,-39.033458
IPC,Mataveri International Airport,Isla De Pascua,CL,-27.165411,-109.421027
IPH,Sultan Azlan Shah Airport,Ipoh,MY,4.56733,101.091643
IPI,San Luis Airport,Ipiales,CO,0.861946,-77.671783
IPL,Imperial County Airport,Imperial,US,32.83539,-115.574026
IPN,Usiminas Airport,Ipatinga,BR,-19.470699,-42.487598
IPT,Williamsport Regional Airport,Williamsport,US,41.242126,-76.92245
IQM,Qiemo Yudu Airport,Qiemo,CN,38.234516,85.465462
IQN,Qingyang Xifeng Airport,Qingyang (Xifeng),CN,35.802638,107.598896
IQQ,Diego Aracena Airport,Iquique,CL,-20.5352,-70.181297
IQT,Coronel FAP Francisco Secada Vignetta International Airport,Iquitos,PE,-3.78474,-73.3088
IRA,Ngorangora Airport,Kirakira,SB,-10.4497003555,161.897994995
IRC,Circle City (New) Airport,Circle,US,65.827673,-144.076195
IRG,Lockhart River Airport,Lockhart River,AU,-12.7869,143.304993
IRJ,Capitan V A Almonacid Airport,La Rioja,AR,-29.381599,-66.795799
IRK,Kirksville Regional Airport,Kirksville,US,40.09349822998047,-92.5448989868164
IRP,Matari Airport,Isiro,CD,2.82761,27.588301
IRZ,Tapuruquara Airport,Santa Isabel do Rio Negro,BR,-0.378604,-64.992558
ISA,Mount Isa Airport,Mount Isa,AU,-20.66638,139.488468
ISB,Islamabad International Airport,Attock,PK,33.549,72.82566
ISC,St. Mary's Airport,"St. Mary's, Isles of Scilly",GB,49.913375,-6.291894
ISE,Süleyman Demirel International Airport,Isparta,TR,37.8554,30.368401
ISG,New Ishigaki Airport,Ishigaki,JP,24.396389,124.245
ISK,Nashik International Airport,Nashik,IN,20.119101,73.912903
ISP,Long Island MacArthur Airport,Islip,US,40.796324,-73.101703
IST,İstanbul Airport,Istanbul,TR,41.274874,28.732136
ISU,Sulaymaniyah International Airport,Sulaymaniyah,IQ,35.5617485046,45.3167381287
ITB,Itaituba Airport,Itaituba,BR,-4.242131,-56.000651
ITH,Ithaca Tompkins Regional Airport,Ithaca,US,42.49100112915039,-76.4583969116211
ITM,Osaka Itami International Airport,Osaka,JP,34.780853,135.440829
ITO,Hilo International Airport,Hilo,US,19.72135,-155.045428
ITU,Iturup Airport,Kurilsk,RU,45.256389,147.95549
IUE,Niue International Airport,Alofi,NU,-19.080109,-169.923493
IVC,Invercargill Airport,Invercargill,NZ,-46.41239929199219,168.31300354003906
IVL,Ivalo Airport,Ivalo,FI,68.6073,27.4053
IWA,Ivanovo South Airport,Ivanovo,RU,56.93939971923828,40.940799713134766
IWD,Gogebic Iron County Airport,Ironwood,US,46.525298,-90.131578
IWJ,Iwami Airport,Masuda,JP,34.676399231,131.789993286
IWK,Iwakuni Kintaikyo Airport,Iwakuni,JP,34.146333,132.247238
IXA,Agartala - Maharaja Bir Bikram Airport,Agartala,IN,23.886999,91.240402
IXB,Bagdogra Airport,Siliguri,IN,26.6812,88.328598
IXC,Shaheed Bhagat Singh International Airport,Chandigarh,IN,30.6735,76.788498
IXD,Prayagraj Airport,Allahabad,IN,25.4401,81.733902
IXE,Mangaluru International Airport,Mangaluru,IN,12.95542,74.884934
IXG,Belagavi Airport,Belgaum,IN,15.8593,74.618301
IXI,Lilabari North Lakhimpur Airport,Lilabari,IN,27.295682,94.097266
IXJ,Jammu Airport,Jammu,IN,32.688849,74.838152
IXK,Keshod Airport,Keshod,IN,21.317101,70.270401
IXL,Leh Kushok Bakula Rimpochee Airport,Leh,IN,34.135899,77.546501
IXM,Madurai Airport,Madurai,IN,9.83450984955,78.09339904790001
IXP,Pathankot Airport,Pathankot,IN,32.233611,75.634444
IXR,Birsa Munda Airport,Ranchi,IN,23.314300537100003,85.3217010498
IXS,Silchar Airport,Silchar,IN,24.9129009247,92.9786987305
IXU,Aurangabad Airport,Aurangabad,IN,19.862875,75.396312
IXY,Kandla Airport,Kandla,IN,23.1127,70.100304
IXZ,Veer Savarkar International Airport / INS Utkrosh,Port Blair,IN,11.640194,92.72902
IZA,Presidente Itamar Franco Airport,Juiz de Fora,BR,-21.513086,-43.173069
IZO,Izumo Enmusubi Airport,Izumo,JP,35.413601,132.889999
IZT,General Antonio Cárdenas Rodríguez National Airport / Ixtepec Air Base,Ixtepec,MX,16.445961,-95.093708
JAC,Jackson Hole Airport,Jackson,US,43.6073,-110.737999
JAE,Shumba Airport,Jaén,PE,-5.59248,-78.774002
JAF,Jaffna International Airport,Jaffna,LK,9.79233,80.070099
JAI,Jaipur International Airport,Jaipur,IN,26.8242,75.812202
JAN,Jackson-Medgar Wiley Evers International Airport,Jackson,US,32.311199,-90.075897
JAU,Francisco Carle Airport,Jauja,PE,-11.7831001282,-75.47339630130001
JAV,Ilulissat Airport,Ilulissat,GL,69.243202,-51.057098
JAX,Jacksonville International Airport,Jacksonville,US,30.492469,-81.687813
JBB,Notohadinegoro Airport,Jember,ID,-8.242494,113.693476
JBK,Qitai Jiangbulake Airport,Qitai,CN,44.166086,89.55014
JBQ,La Isabela International Airport,La Isabela,DO,18.572500228881836,-69.98560333251953
JBR,Jonesboro Municipal Airport,Jonesboro,US,35.83169937133789,-90.64640045166016
JCK,Julia Creek Airport,,AU,-20.66830062866211,141.72300720214844
JCL,České Budějovice South Bohemian Airport,České Budějovice,CZ,48.948171,14.42832
